Longitude,Latitude,Name,Description,House,Address,Tags,Category
103.8560707,1.303210541,Church of Our Lady of Lourdes,"Known simply as the Indian Church or Tamil Church in the past, the Church of Our Lady of Lourdes is one of Singapore’s oldest Catholic churches.",50,Ophir Road,Monuments,Sights
103.8245445,1.447377772,Former Admiralty House,"Surrounded by several ancillary buildings and facilities on a sprawling estate, the Former Admiralty House used to accommodate key military commanders based in Singapore.",345,Old Nelson Road,Monuments,Sights
103.8505995,1.298273205,Maghain Aboth Synagogue,"Located in the former Jewish neighbourhood, Maghain Aboth Synagogue is the oldest surviving synagogue not only in Singapore, but also in Southeast Asia.",,Waterloo Street,Monuments,Sights
103.8491889,1.292154101,Central Fire Station,The Central Fire Station is the oldest surviving fire station in Singapore and is a living monument to the local firefighting force.,62,Hill Street,Monuments,Sights
103.8432425,1.298499336,Former House of Tan Yeok Nee,"Standing out prominently from its modern surroundings, the Chinese-style Former House of Tan Yeok Nee is the sole survivor of the ‘Four Grand Mansions’ built in the late nineteenth-century.",101,Penang Road,Monuments,Sights
103.8408565,1.293303497,Hong San See,"Hong San See (‘Temple on Phoenix Hill’), perched on the side of Institution Hill off Mohamed Sultan Road, was established by Hokkien immigrants from Nan’an (or Lam Ann) County in Fujian Province.",31,Mohamed Sultan Road,Monuments,Sights
103.8491639,1.294236311,Former Tao Nan School (now The Peranakan Museum),"A stone’s throw from the Armenian Church is a century-old building that used to house Tao Nan School, the first modern Chinese school in Singapore.",39,Armenian Street,Monuments,Sights
103.8478013,1.281457101,Former Nagore Dargah,"The Former Nagore Dargah is situated on the historic Telok Ayer Street, a short distance from Telok Ayer Chinese Methodist Church, Al-Abrar Mosque and Thian Hock Keng.",140,Telok Ayer Street,Monuments,Sights
103.8511097,1.301714219,Prinsep Street Presbyterian Church,Prinsep Street Presbyterian Church is one of Singapore’s oldest Presbyterian churches.,77,Prinsep Street,Monuments,Sights
103.8469914,1.278473606,Telok Ayer Chinese Methodist Church,"Originally known as the Chinese Methodist Church, Telok Ayer Chinese Methodist Church was the first church established to cater exclusively to the spiritual needs of the Chinese Methodist community.",235,Telok Ayer Street,Monuments,Sights
103.8476973,1.281201666,Former Keng Teck Whay Building,"Once home to one of Singapore's oldest self-help organisations, the Former Keng Teck Whay Building is situated next to Thian Hock Keng.",150,Telok Ayer Street,Monuments,Sights
103.84897,1.276201,Former Singapore Conference Hall and Trade Union House (now Singapore Conference Hall),The Former Singapore Conference Hall and Trade Union House was constructed to house the headquarters of the National Trades Union Congress (NTUC) as the fulfilment of an election promise.,7,Shenton Way,Monuments,Sights
103.9696283,1.356417666,Changi Prison Gate Wall and Turrets,Changi Prison was designed to be a maximum security prison to house up to 600 criminals sentenced to long-term imprisonment in British Singapore.,,Upper Changi Road North,Monuments,Sights
103.819148,1.325597,Former Command House,"The stately Former Command House is located near Bukit Timah Road, a major road constructed during the mid-nineteenth century and one of the last defences against the invading Japanese troops in 1942.",17,Kheam Hock Road,Monuments,Sights
103.853389,1.289684,Esplanade Park Memorials,"Prior to the first land reclamation in 1843, the original shoreline of Singapore ran across the present Padang.",,"Esplanade Park, Connaught Drive",Monuments,Sights
103.8369,1.272797,Former Tanjong Pagar Railway Station,The Former Tanjong Pagar Railway Station was previously the southernmost terminal station of the Federated Malay States Railways.,30,Keppel Road,Monuments,Sights
103.854717,1.292883,Civilian War Memorial,"Not far from the Esplanade Park Memorials stands the Civilian War Memorial, the first memorial in Singapore dedicated to the civilian victims of the Japanese Occupation (1942–1945).",,Beach Road,Monuments,Sights
103.890715,1.305363,Chung Cheng High School (Main) Administration Building and Entrance Arch,"As one of Singapore’s oldest Chinese high schools, Chung Cheng High School was among the firsts to make higher education accessible to Chinese youth.",50,Goodman Road,Monuments,Sights
103.8482727,1.290884559,Former Hill Street Police Station,"Nicknamed the ‘Police Skyscraper’ in the past, the Former Hill Street Police Station is prominently located at the junction of Hill Street and River Valley Road.",140,Hill Street,Monuments,Sights
103.8542744,1.294934986,Raffles Hotel,Raffles Hotel is one of the most well-known luxury hotels in Singapore and the oldest surviving establishment of its kind on the island.,1,Beach Road,Monuments,Sights
103.848486,1.296661822,National Museum of Singapore,"With its wide façade and large dome, the National Museum of Singapore has been a prominent landmark on Stamford Road for over a century.",93,Stamford Road,Monuments,Sights
103.8472533,1.328134534,Former Sun Yat Sen Villa (now Sun Yat Sen Nanyang Memorial Hall),Sun Yat-sen Nanyang Memorial Hall is one of the few surviving examples of villas that were once common sights in British Singapore.,12,Tai Gin Road,Monuments,Sights
103.8593641,1.302540103,Sultan Mosque,"Formerly the royal mosque of the Sultan of Johor, Sultan Mosque represents the solidarity and unity of Muslims in Singapore.",3,Muscat Street,Monuments,Sights
103.8521927,1.292188356,St. Andrew's Cathedral,Saint Andrew's Cathedral is Singapore’s oldest surviving Anglican place of worship and is the seat of the Anglican bishop of Singapore.,11,St. Andrew's Road,Monuments,Sights
103.84292,1.289095571,Tan Si Chong Su,The history of Tan Si Chong Su (‘Ancestral Hall of the Tan Clan’) is inextricably linked to the influx of Chinese immigrants into Singapore during the late nineteenth century.,15,Magazine Road,Monuments,Sights
103.8530633,1.286344666,Former Fullerton Building,The former Fullerton Building is a prominent landmark situated at the mouth of the Singapore River.,1,Fullerton Square,Monuments,Sights
103.8514224,1.287569861,Former Empress Place Building (now Asian Civilisations Museum),"Situated at the mouth of the Singapore River, the Former Empress Place Building was an important government building in Singapore up to the 1980s.",1,Empress Place,Monuments,Sights
103.8341268,1.308122158,Goodwood Park Hotel (Tower Block),"The Tower Wing of the present-day Goodwood Park Hotel was home to the German Teutonia Club, one of the earliest European national clubs in Singapore.",22,Scotts Road,Monuments,Sights
103.8515209,1.288150282,Victoria Theatre and Concert Hall,In the heart of Singapore’s historic Civic District stand the magnificent Victoria Theatre and Victoria Concert Hall with the iconic clock tower.,9,Empress Place,Monuments,Sights
103.8484643,1.28250191,Ying Fo Fui Kun,"Not far from Former Nagore Dargah on Telok Ayer Street is Ying Fo Fui Kun, Singapore’s oldest Hakka clan association.",98,Telok Ayer Street,Monuments,Sights
103.8490743,1.293002487,Armenian Apostolic Church of Saint Gregory the Illuminator,The Armenian Apostolic Church of Saint Gregory the Illuminator – commonly called the Armenian Church – is Singapore's oldest Christian church,60,Hill Street,Monuments,Sights
103.8333301,1.280550064,Tan Teck Guan Building,"Standing beside the College of Medicine Building is a smaller, two-storey building known as Tan Teck Guan Building.",16A,College Road,Monuments,Sights
103.8478534,1.299331872,Former Cathay Building (now The Cathay),The Art Deco façade wall fronting the modern glass architecture of The Cathay is the remnant of what used to be Malaya’s tallest building.,2,Handy Road,Monuments,Sights
103.8454341,1.287415974,Former Thong Chai Medical Institution,"Home to the first free traditional Chinese medical clinic for the poor in Singapore, the Former Thong Chai Medical Institution testifies to the Chinese pioneers’ spirit of mutual assistance and their generosity towards the poor and needy.",50,Eu Tong Sen Street,Monuments,Sights
103.8788447,1.355271227,Tou Mu Kung Temple,Tou Mu Kung Temple is the oldest temple in Singapore dedicated to the Taoist deity Jiu Huang Ye (‘Nine Emperors’ or ‘Ninth Emperor’).,779A,Upper Serangoon Road,Monuments,Sights
103.8512694,1.297879983,Church of Saints Peter and Paul,The Church of Saints Peter and Paul is one of the oldest Catholic churches in Singapore that catered to a predominantly Chinese congregation.,225A,Queen St,Monuments,Sights
103.8014256,1.325110804,Chinese High School Clock Tower,The Chinese High School Clock Tower Building is the icon of the oldest Chinese-medium high school in Singapore and has been a visual landmark of Bukit Timah Road since its completion.,673,Bukit Timah Road,Monuments,Sights
103.860107,1.302421,Istana Kampong Gelam,Within the historic district of Kampong Gelam lies Istana Kampong Gelam ('Gelam Village Palace').,85,Sultan Gate,Monuments,Sights
103.851051,1.297259,Former Saint Joseph's Institution (now Singapore Art Museum),Saint Joseph's Institution is the oldest Catholic boys' school in Singapore and was founded by the Christian Brothers (formally known as the Institute of the Brothers of the Christian Schools),71,Bras Basah Road,Monuments,Sights
103.850833,1.289117,Former Attorney-Generals Chambers (now Parliament House Block C),Tucked away in a corner near the Padang is a beautiful structure that once housed the Attorney-General's Chambers.,1,Parliament Place,Monuments,Sights
103.683124,1.348315,"Former Nanyang University Library and Administration Building, Memorial and Arch","Nanyang University, affectionately known as Nantah, was the first Chinese-language university in Southeast Asia and the second university in Singapore.",,Nanyang Drive,Monuments,Sights
103.8982177,1.373625931,Church of the Nativity of the Blessed Virgin Mary,The Church of the Nativity of the Blessed Virgin Mary is one of the earliest Catholic churches built in the suburbs of Singapore.,1259,Upper Serangoon Road,Monuments,Sights
103.8151312,1.30478978,St. George's Church,"Saint George’s Church is situated in the quiet environs off Minden Road, a short distance from the bustling shopping district of Orchard Road.",,Minden Road,Monuments,Sights
103.8531521,1.298358197,St Joseph's Church,Saint Joseph’s Church on Victoria Street was the headquarters of the Portuguese Mission in Singapore.,143,Victoria Street,Monuments,Sights
103.8492606,1.284581221,Yueh Hai Ching Temple,"Dwarfed by modern skyscrapers in the heart of the Central Business District is one of Singapore’s oldest Chinese temples, Yueh Hai Ching Temple.",30-B,Philip Street,Monuments,Sights
103.85216,1.295594375,Former Convent of the Holy Infant Jesus Chapel and Caldwell House (now CHIJMES),"Owing to its central location, the Convent of the Holy Infant Jesus was also affectionately referred to as the Town Convent in the past.",30,Victoria Street,Monuments,Sights
103.8536909,1.30448454,Abdul Gafoor Mosque,Abdul Gafoor Mosque's charming architecture stands out amidst the surrounding shophouses in the historic Little India district.,41,Dunlop Street,Monuments,Sights
103.8471534,1.280501643,Al-Abrar Mosque,"Located on Telok Ayer Street, a short walk from Thian Hock Keng, the Former Keng Teck Whay Building, and the Former Nagore Dargah, Al-Abrar Mosque is one of Singapore’s oldest mosques.",192,Telok Ayer Street,Monuments,Sights
103.8432919,1.307130593,The Istana and Sri Temasek,"Shielded from the bustling Orchard Road by a sprawling green lung, the Istana (‘Palace’ in Malay) is the official residence of the President of the Republic of Singapore.",,Orchard Road,Monuments,Sights
103.8504252,1.28053825,Former Telok Ayer Market (now known as Lau Pa Sat),"Affectionately known as Lau Pa Sat (‘Old Market’) by generations of Singaporeans, the Former Telok Ayer Market was one of Singapore’s oldest markets.",18,Raffles Quay,Monuments,Sights
103.8512591,1.289747482,Former Supreme Court,Amidst the colonial buildings and skyscrapers of the Civic District rises the copper-green dome of the Former Supreme Court.,,St. Andrew's Road,Monuments,Sights
103.8430438,1.286742323,Former Ministry of Labour Building (now Family Justice Courts),The Former Ministry of Labour Building is located not far away from the Former Thong Chai Medical Institution and Tan Si Chong Su.,1,Havelock Square,Monuments,Sights
103.8453056,1.282517934,Sri Mariamman Temple,"Together with Jamae Mosque, Sri Mariamman Temple – Singapore’s oldest Hindu temple – is an enduring icon on South Bridge Road which is a part of Chinatown.",244,South Bridge Road,Monuments,Sights
103.8559032,1.313328846,Sri Perumal Temple,"Formerly known as Sri Narasimha Perumal Temple, Sri Srinivasa Perumal Temple is the first Hindu temple in Singapore dedicated to Sri Perumal, the Hindu deity more commonly known as Vishnu.",397,Serangoon Road,Monuments,Sights
103.8474892,1.281109555,Thian Hock Keng,Thian Hock Keng (‘Palace of Heavenly Happiness’) is one of Singapore’s oldest Hokkien temples.,158,Telok Ayer Street,Monuments,Sights
103.8512359,1.296031642,Cathedral of the Good Shepherd,The Cathedral of the Good Shepherd is Singapore's oldest Catholic place of worship and the seat of the local Roman Catholic archbishop.,A,Queen Street,Monuments,Sights
103.843195,1.294261,Sri Thendayuthapani Temple,"Sri Thendayuthapani Temple, commonly referred to as the Chettiars’ Temple, is one of Singapore’s oldest Hindu temples dedicated to Murugan, the Hindu deity who is also known as Sri Thendayuthapani.",15,Tank Road,Monuments,Sights
103.870358,1.332938,Alkaff Upper Serangoon Mosque,Alkaff Upper Serangoon Mosque was constructed by the mercantile and landowning Alkaff family to serve the spiritual needs of the local Muslim community at large.,66,Pheng Geck Avenue,Monuments,Sights
103.742211,1.328984,Jurong Town Hall,"On a hill overlooking Jurong estate, Jurong Town Hall once served as the headquarters of Jurong Town Corporation (JTC, presently JTC Corporation).",9,Jurong Town Hall Road,Monuments,Sights
103.769162,1.352943,Former Ford Factory (now Memories at Old Ford Factory),"Built atop a little hill, the Former Ford Factory has been a visual landmark in Bukit Timah since its completion in 1941.",351,Upper Bukit Timah Road,Monuments,Sights
103.816846,1.318323,Former Raffles College (now NUS Campus at Bukit Timah),"Located next to the Singapore Botanic Gardens, the Former Raffles College is well hidden from the public eye.",469G,Bukit Timah Road,Monuments,Sights
103.836289,1.280736,Bowyer Block,Amidst the modern blocks in the sprawling compound of Singapore General Hospital stands a Neoclassical building with its distinctive clock tower.,11,Third Hospital Avenue,Monuments,Sights
103.827888,1.272781,Church of St Teresa,"Standing atop a little hill, the Church of Saint Teresa was originally constructed for the spiritual needs of the Hokkien-speaking Catholics living in the town area.",510,Kampong Bahru Road,Monuments,Sights
103.824848,1.264685,Former St James Power Station,The Former Saint James Power Station was the first coal-fired power station on the island.,3,Sentosa Gateway,Monuments,Sights
103.8426639,1.297256922,Chesed-El Synagogue,"Chesed-El Synagogue on Oxley Rise is one of two synagogues in Singapore, the other being Maghain Aboth Synagogue on Waterloo Street.",2,Oxley Rise,Monuments,Sights
103.851837,1.290885802,Former City Hall,"Located in the heart of the Civic District, the Former City Hall served as an important government office in Singapore.",3,St. Andrew's Road,Monuments,Sights
103.8341767,1.280845791,College of Medicine Building,"The College of Medicine Building is located at the rear of the Singapore General Hospital’s compound, next to Tan Teck Guan Building.",16,College Road,Monuments,Sights
103.8628607,1.302888968,Hajjah Fatimah Mosque,"Hajjah Fatimah Mosque is one of the oldest mosques in Singapore, a rare example of one named after a woman.",4001,Beach Road,Monuments,Sights
103.8453379,1.283200368,Jamae Mosque,"Like the nearby Sri Mariamman Temple, Jamae Mosque has been a familiar landmark on South Bridge Road since the mid-nineteenth century.",18,South Bridge Road,Monuments,Sights
103.8461263,1.299208616,MacDonald House,"Located not far from the Istana and the Former Cathay Building, MacDonald House has a relatively plain and unadorned façade that does not appear to be exceptionally striking.",40A,Orchard Road,Monuments,Sights
103.8573425,1.330344903,Former Siong Lim Temple (now Lian Shan Shuang Lin Monastery),The traditional architecture of Lian Shan Shuang Lin Monastery – or ‘Twin Grove Monastery on Lotus Hill’ – stands out amidst the modern high-rise apartment blocks in the Toa Payoh neighbourhood.,184-E,Jalan Toa Payoh,Monuments,Sights
103.7476468,1.352031065,National Healthcare Group Polyclinics' Gallery of Memories,This Museum documents the history of modern medical care in Singapore from 1819 with the arrival of Sir Stamford Raffles and has a display of more than 100 artefacts from the past like the travelling,50,Bukit Batok West Avenue,Museums,Sights
103.8542818,1.297225923,National Library Singapore,Check out the Library's exhibition and gallery spaces to view exhibitions related to their library collections and themes.,100,Victoria Street,Museums,Sights
103.8485049,1.29672359,National Museum of Singapore,The National Museum is Singapore's oldest museum with the youngest and most innovative soul.,93,Stamford Road,Museums,Sights
103.8434492,1.295298155,Ngee Ann Cultural Centre,Ngee Ann Kongsi Collections permanently houses the art collection of the Kongsi. It aims to support and encourage Teochew artists in their artistic endeavours.,97,Tank Road,Museums,Sights
103.8491479,1.294252499,Peranakan Museum,"Experience the unique culture of the Peranakans, an eclectic community that can only be found in Southeast Asia.",39,Armenian Street,Museums,Sights
103.8450195,1.324025655,Police Heritage Centre,Be immersed in an enriching learning journey that details SPF's role in nation building.,28,Irrawaddy Road,Museums,Sights
103.856316,1.280228007,Red Dot Design Museum,"The red dot design museum is the physical embodiment of the red dot design awards, an exclusive exhibition venue for red dot design award winners.",11,Marina Boulevard,Museums,Sights
103.7942419,1.279543297,Reflections at Bukit Chandu,"A WWII interpretative centre of National Archives. Discover the Malay Regiment soldiers who fought in the Battle of Pasir Panjang and reflect upon the universal values of courage, loyalty and honour.",31-K,Pepys Road,Museums,Sights
103.8997319,1.345155523,Republic of Singapore Airforce Museum,Trace the development of the Republic of Singapore Air Force from its early days the Royal Air Force in 1927 to the present.,400,"Airport Road, Paya Lebar Airbase",Museums,Sights
104.016516,1.317435,Republic of Singapore Navy Museum,"Take a trip down memory lane, as you have view guns and other components taken from our warships.",112,"Tahan Merah Coast Road, outside Changi Naval Base",Museums,Sights
103.6789427,1.332726408,Singapore Discovery Centre,"Comprising five main galleries over some 4500 square metres, the new Centre tells the Singapore Story with even more exciting interactive and multi-sensory exhibits.",510,Upper Jurong Road,Museums,Sights
103.7362697,1.333284361,Science Centre Singapore,"Learn about the wonders of science through a year-long calendar of innovative exhibitions, programmes and activities.",15,Science Centre Road,Museums,Sights
103.8509489,1.297240599,Singapore Art Museum,"Enjoy, explore and experience modern and contemporary art in one of the most exquisite location in town.",71,Bras Basah Road,Museums,Sights
103.845323,1.279592856,Singapore City Gallery,Be captivated by an amazing bird's eye view of Singapore's central hub - not from the top of a skyscraper - but a finely detailed architectural model measuring a mere 11 by 11 metres.,45,Maxwell Road,Museums,Sights
103.863337,1.271039,Singapore Maritime Gallery,"The Maritime Singapore Gallery helps visitors to understand the story of contemporary Maritime Singapore, the importance to its economy, and the diverse range of rewarding career options it offers.",31,Marina Coastal Drive,Museums,Sights
103.8487158,1.292832559,Singapore Philatelic Museum,Immerse yourself in the world of stamps!,23-B,Coleman St,Museums,Sights
103.873453,1.301442,Singapore Sports Museum,The Sports Museum was first established in 1983 and it is a place where sporting dreams are celebrated,6,Stadium Walk,Museums,Sights
103.8472173,1.328109212,Sun Yat Sen Nanyang Memorial Hall,"Built in the late 19th century, the father of 1911 Chinese Revolution, Dr Sun Yat Sen, used to reside in this two-storey bungalow whenever he visited Singapore.",12,Tai Gin Road,Museums,Sights
103.8459406,1.321687687,Tan Tock Seng Hospital Heritage Museum,"Honouring the legacy of founder Mr Tan Tock Seng, the museum features narrative displays, salvaged historical objects and a time capsule.",11,Jalan Tan Tock Seng,Museums,Sights
103.8461633,1.295500087,The Battle Box,"This used to be the largest underground military operations complex in Singapore during World War II. Witness the drama of British surrender to the Japanese, as wax figurines, video and audio effects.",2,Cox Terrace,Museums,Sights
103.9740068,1.36216665,The Changi Museum,Walk through the adverse journeys of Singapore's bravehearts.,1000,Upper Changi Road North,Museums,Sights
103.788144,1.282916024,The Grassroots Heritage Centre,The Grassroots Heritage Centre is set up by the National Community Leadership Institute (NACLI) as part of the People's Association (PA) National Education efforts for its staff and grassroots leaders.,70,South Buona Vista Road,Museums,Sights
103.900968,1.314486,The Intan,"With a deep love for all things Peranakan, owner, collector, and 7th generation Peranakan, Alvin Yapp, turned his passion into a haven for this fascinating and ever-adapting culture.",69,Joo Chiat Terrace,Museums,Sights
103.8514545,1.298088599,The Private Museum,"The museum’s focus is to provide a space for art collectors to showcase their private collections, as well as establishing an alternative platform for artists to push boundaries in various art forms.",51,Waterloo Street,Museums,Sights
103.8359348,1.28074432,The SGH Museum,"The SGH Museum is a dedicated space which houses a vast collection of medical objects, history and developments of the practice of medicine at the Singapore general hospital.",,Outram Road,Museums,Sights
103.8849925,1.383068447,Woodbridge Museum,"Explore the history of mental health services in Singapore via artefacts, documents, and photographs from the old Woodbridge Hospital in Yio Chu Kang.",10,Buangkok Green,Museums,Sights
103.6768146,1.331906741,Army Museum of Singapore,"Launched in conjunction with the 40th anniversary of National Service, the museum charts the development of the Army and honours the contributions of our soldiers.",520,Upper Jurong Road,Museums,Sights
103.859234,1.286278,ArtScience Museum,"Artscience Museum a Marina Bay Sands is Southeast Asia's leading cultural institution that explores the inter-relation between art, science, technology and culture.",10,Bayfront Avenue,Museums,Sights
103.8513709,1.287459981,Asian Civilisations Museum,"One of Singapore's largest and grandest museum, the Asian Civilisations Museum traces more than 5,000 years of our ancestral culture.",1,Empress Place,Museums,Sights
103.8585504,1.344409115,BCA Gallery,Find out what goes on behind the scenes from the drawing board to the construction of a building.,200,Braddell Road,Museums,Sights
103.8443777,1.283578306,Chinatown Heritage Centre,Relive a past era when Chinese immigrants risked their lives crossing the South China Sea for a better tomorrow in Singapore.,48,Pagoda Street,Museums,Sights
103.6839985,1.343779013,Chinese Heritage Centre,A treasure trove of discoveries about the Chinese venturing outside of their motherland in China awaits you.,12,Nanyang Drive,Museums,Sights
103.8491151,1.292053355,Civil Defence Heritage Gallery,This oldest existing fire station in Singapore reveals the developments of civil defence in Singapore from the 19th century till today.,62,Hill Street,Museums,Sights
103.899397,1.310099,Eurasian Heritage Centre,The mission of the Eurasian Heritage Centre is to preserve and share Eurasian heritage and culture.,139,Celyon Road,Museums,Sights
103.7688553,1.352691729,Former Ford Factory,"National monument where the British surrendered Singapore to the Japanese on 15 Feb 1942, now restored by the National Archives to house a permanent WWII exhibition gallery and archives repositories.",351,Upper Bukit Timah Road,Museums,Sights
103.8279502,1.248348603,Fort Siloso,"Singapore's only preserved coastal fortress has both indoor and outdoor exhibitions, allowing visitors a glimpse into Singapore's colonial past.",33,"Allanbrooke Road, Sentosa",Museums,Sights
103.8488089,1.282981493,Fuk Tak Chi Museum,"One of the oldest temples in Singapore, this Chinese temple began as a small shrine set up by Hakka and Cantonese immigrants in 1824.",76,Telok Ayer Street,Museums,Sights
103.840823,1.279177,Gan Heritage Centre,"Gan Heritage Centre seek to honour and preserve the rich heritage of the Gan Clan, to celebrate the historic and cultural significance of the Gan ancestry.",18,Bukit Pasoh Road,Museums,Sights
103.8495318,1.297765773,Gem Museum,"The Gem Museum is the first and foremost comprehensive gems and minerals museum in Singapore, open to the public.",222,Queen Street,Museums,Sights
103.848838,1.332269,HDB Gallery,The HDB gallery serves as a one-stop destination that provides learning opportunities about Singapore's Public Housing for both Singaporeans and overseas visitors.,480,Toa Payoh Lorong 6,Museums,Sights
103.722071,1.372,Home Team Gallery,The Home Team Gallery is a two storey building with a mezzanine floor located within the Home Team Academy.,501,Old Choa Chu Kang Road,Museums,Sights
103.8421205,1.319736175,IRAS Gallery,"The gallery explores tax in Singapore in the past, the present and the future through a highly interactive experience that allows visitors to discover much of this story for themselves.",55,Newton Road,Museums,Sights
103.8522504,1.305673764,Indian Heritage Centre,The Indian Heritage Centre is the first museum in Southeast Asia to focus on diverse heritage of the Indian community. The four-storey building stands in the heart of the historic Little India precinct.,5,Campbell Lane,Museums,Sights
103.8433907,1.299465107,Istana Heritage Gallery,"The Istana Heritage Gallery offers visitors a glimpse into the rich history and heritage of the Istana, a national monument whose history was closely intertwined with Singapore's transition into an independent nation.",35,Orchard Road,Museums,Sights
103.8493514,1.308143902,Land Transport Gallery,The gallery provides an interesting multi-sensory experience for visitors using various presentation methods and formats to continually engage visitors in a fun and interactive way.,1,Hampshire Road Blk 1 Level 1,Museums,Sights
103.77364,1.301618,Lee Kong Chian Natural History Museum,"Based at the National University of Singapore, the Lee Kong Chian Natural History Museum houses Singapore's national and reference collection of preserved zoological specimens as well as a herbarium.",2,Conservatory Drive,Museums,Sights
103.8598759,1.302857711,Malay Heritage Centre,"Experience our Malays' immensely rich cultural legacy in this regal compound, which was a former king's palace.",85,Sultan Gate,Museums,Sights
103.8708209,1.280875993,Marina Barrage,"The Marina Barrage is a dam built across the Marina Channel, forming Singapore's first reservoir in the city.",8,Marina Gardens Drive,Museums,Sights
103.798231,1.303573,Ministry of Education Heritage Centre,"The MOE Heritage Centre is set-up to inspire aspiring teachers, affirm the work of serving educators and commemorate the contributions of educators and communities that shaped education in Singapore.",,402 Commonwealth Drive,Museums,Sights
103.8546464,1.296294786,Mint Museum of Toys,"Whether you are a child at heart or an avid toy collector, the Mint Museum of Toys has something for everyone.",26,Seah Street,Museums,Sights
103.9586934,1.324169452,NEWater Visitor Centre,Discover the importance of water and NEWater's role as one of our Four National Taps.,20,Koh Sek Lim Road,Museums,Sights
103.8373622,1.277061744,NUS Baba House,The Baba House plays an important role in conserving our distinctive Peranakan heritage in one of the last surviving Peranakan-style houses in its original state in Singapore.,157,Neil Road,Museums,Sights
103.7724678,1.301435632,NUS Museum,A memorable experience of ancient culture and contemporary Asian artworks awaits you at NUS Museum.,50,Kent Ridge Crescent,Museums,Sights
103.851542,1.289896972,National Gallery Singapore,National Gallery Singapore is a visual arts institution which oversees the largest public collection of modern art in Singapore and Southeast Asia.,1,St. Andrews Road,Museums,Sights
103.8436,1.3634,Bishan-Ang Mo Kio Park,,,1384 Ang Mo Kio Ave 1,Parks,Sights
103.8224,1.3448,MacRitchie Reservoir Park,,,MacRitchie Reservoir Park,Parks,Sights
103.7737,1.3517,Bukit Timah Nature Reserve,,,"Hindhede Dr, Singapore",Parks,Sights
103.8466,1.2939,Fort Canning Park,,,River Valley Rd,Parks,Sights
103.8224,1.4343,Sembawang Hot Spring Park,,,"Along, Gambas Ave",Parks,Sights
103.8327,1.4102,Lower Seletar Reservoir Park,,,"Yishun Ave 1, Lower Seletar Reservoir Park",Parks,Sights
103.8175,1.2738,Mount Faber Park,,,"Junction of Kampong Bahru Road and, Telok Blangah Rd",Parks,Sights
103.802995,1.280102,The Southern Ridges,,,The Southern Ridges,Parks,Sights
103.7992,1.2784,Hort Park,,,33 Hyderabad Rd,Parks,Sights
103.8257,1.2537,Southern Islands,,,Southern Islands,Parks,Sights
103.8033,1.2659,Labrador Nature Reserve,,,Labrador Villa Rd,Parks,Sights
103.9577,1.4126,Pulau Ubin,,,Pulau Ubin,Parks,Sights
103.9216,1.4093,Coney Island (Serangoon Island),,,Coney Island ,Parks,Sights
103.9482,1.3638,Tampines Eco Green,,,Tampines Ave 9,Parks,Sights
103.7203,1.4198,Kranji Marshes,,,11 Neo Tiew Lane 2,Parks,Sights
103.7262,1.3359,Jurong Lake Gardens,,,Yuan Ching Rd,Parks,Sights
103.8554112,1.299113161,McDonald's - Bugis Junction,Bugis Junction,230,Victoria Street,Fastfood,Eats
103.8552422,1.300898845,McDonald's - Bugis Village,Bugis Village,151,Rochor Road,Fastfood,Eats
103.7505387,1.34941218,McDonald's - Bukit Batok,,632,Bukit Batok Central,Fastfood,Eats
103.7442573,1.34830189,McDonald's - Bukit Batok West,,152,Bukit Batok Street 11,Fastfood,Eats
103.7507197,1.358099272,McDonald's - Bukit Gombak,,374,Bukit Batok Street 31,Fastfood,Eats
103.7639619,1.380517328,McDonald's - Bukit Panjang Plaza,Bukit Panjang Plaza,1,Jelebu Road,Fastfood,Eats
103.7856887,1.436007845,McDonald's - Causeway Point,Causeway Point,1,Woodlands Square,Fastfood,Eats
103.988751,1.35519094,McDonald's - Changi Airport T2,Changi Airport Terminal 2,60,"Airport Boulevard, Changi Airport Terminal 2  Mezzanine Level Arrival Meeting",Fastfood,Eats
103.988751,1.35519094,McDonald's - Changi Airport T2 Transit Lounge,Changi Airport Terminal 2,60,"Airport Boulevard, Changi Airport Terminal 2  Departure, Transit Lounge Central",Fastfood,Eats
103.9851697,1.354370736,McDonald's - Changi Airport T3,Changi Airport Terminal 3,65,"Airport Boulevard, Changi Airport Terminal 3 Arrival Meeting Hall South",Fastfood,Eats
103.9834828,1.338008134,McDonald's - Changi Airport T4,Changi Airport Terminal 4,10,"Airport Boulevard, Changi Airport Terminal 4 Mezzanie Departure , Check-in Hall",Fastfood,Eats
103.9623893,1.334325156,McDonald's - Changi City Point,Changi City Point,5,Changi Business Park Central 1,Fastfood,Eats
103.8446971,1.284998828,McDonald's - Chinatown Point,Chinatown Point,133,New Bridge Road,Fastfood,Eats
103.7449504,1.385068357,McDonald's - Choa Chu Kang 4,Lot One,21,Choa Chu Kang Avenue 4,Fastfood,Eats
103.7469741,1.397781391,McDonald's - Choa Chu Kang 62,,624,Choa Chu Kang Street 62,Fastfood,Eats
103.7473449,1.398321338,McDonald's - Choa Chu Kang 62 (Kiosk),,623,Choa Chu Kang Street 62,Fastfood,Eats
103.7441391,1.385672711,McDonald's - Choa Chu Kang MRT,Choa Chu Kang MRT Station,10,Choa Chu Kang Avenue 4,Fastfood,Eats
103.7430996,1.392073885,McDonald's - Choa Chu Kang Neighbourhood 5,Limbang Shopping Centre,533,Choa Chu Kang Street 51,Fastfood,Eats
103.8292349,1.43083237,McDonald's - Chong Pang CC,Chong Pang Community Centre,21,Yishun Ring Road,Fastfood,Eats
103.7519039,1.38115529,McDonald's - Chua Chu Kang CC,Choa Chu Kang Community Centre,35,Teck Whye Avenue,Fastfood,Eats
103.8564218,1.311305165,McDonald's - City Square Mall,City Square Mall,180,Kitchener Road,Fastfood,Eats
103.7654768,1.31248298,McDonald's - Clementi Ave 3,,451,Clementi Avenue 3,Fastfood,Eats
103.7642482,1.314853218,McDonald's - Clementi Mall,Clementi Mall,3155,Commonwealth Avenue West,Fastfood,Eats
103.905996,1.301887334,McDonald's - Parkway,Parkway Parade,1,Marine Parade Central Parkway Centre,Fastfood,Eats
103.9497157,1.372449816,McDonald's - Pasir Ris Central,White Sands Shopping Centre,1,Pasir Ris Central Street 3,Fastfood,Eats
103.9518225,1.374448456,McDonald's - Pasir Ris Sports & Recreation Centre,Pasir Ris Sports & Recreation Centre,120,Pasir Ris Central,Fastfood,Eats
103.8925506,1.31867575,McDonald's - Paya Lebar Square,Paya Lebar Square,60,Paya Lebar Road,Fastfood,Eats
103.8425196,1.284133909,McDonald's - People's Park,People's Park Complex,1,Park Road,Fastfood,Eats
103.6970201,1.34159108,McDonald's - Pioneer Mall,Pioneer Mall,638,Jurong West Street 61,Fastfood,Eats
103.8450476,1.300747543,McDonald's - Plaza Singapura,Plaza Singapura,68,Orchard Road,Fastfood,Eats
103.8677743,1.332354352,McDonald's - Potong Pasir,,148,Potong Pasir Avenue 1,Fastfood,Eats
103.801127,1.273676578,McDonald's - PSA,PSA Building (Alexandra Retail Centre),460,Alexandra Road,Fastfood,Eats
103.9134641,1.393606242,McDonald's - Punggol 21 Community Centre,Punggol 21 Community Centre,80,Punggol Field,Fastfood,Eats
103.9060319,1.410113282,McDonald's - Punggol Safra,Punggol Safra,9,Sentul Crescent,Fastfood,Eats
103.8021104,1.304061641,McDonald's - Queensway,Ridout Tea Garden,580,Queensway,Fastfood,Eats
103.8033911,1.287617916,McDonald's - Queensway Shopping Centre,Queensway Shopping Centre,1,Queensway,Fastfood,Eats
103.8527683,1.293760279,McDonald's - Raffles City Shopping Centre,Raffles City Shopping Centre,252,North Bridge Road,Fastfood,Eats
103.8182226,1.283431072,Mcdonald's - REGAL,REGAL,3501,Jalan Bukit Merah,Fastfood,Eats
103.819459,1.256573486,McDonald's - Resorts World Sentosa,Resorts World Sentosa,26,Sentosa Gateway,Fastfood,Eats
103.9044716,1.392197776,McDonald's - Rivervale Mall,Rivervale Mall,11,Rivervale Crescent,Fastfood,Eats
103.8542137,1.329886512,McDonald's - Safra TPY,Toa Payoh Safra Club House,293,Toa Payoh Lorong 6,Fastfood,Eats
103.7639619,1.380517328,Kopitiam - Bukit Panjang Plaza,Bukit Panjang Plaza,1,Jelebu Road,Cafés,Eats
103.9492944,1.34068474,Kopitiam - Changi General Hospital,Changi General Hospital,2,Simei Street 3,Cafés,Eats
103.9481934,1.341318526,Kopitiam - Changi General Hospital (Integrated Building),IB@Changi General Hospital,6A,Simei Street 3,Cafés,Eats
103.8794503,1.37566728,Kopitiam - Hougang 1,Hougang 1 Shopping Mall,1,Hougang Street 91,Cafés,Eats
103.7467345,1.334898437,Kopitiam - IMM,IMM,2,Jurong East Street 21,Cafés,Eats
103.8186256,1.262063364,Kopitiam - Bagus @ Harbourfront Centre,Harbourfront Centre,,1 Maritime Square,Cafés,Eats
103.7627412,1.378349713,Kopitiam - Hillion Mall,Hillion Mall,,17 Petir Road,Cafés,Eats
103.8940672,1.318856103,Kopitiam - Singapore Post,Singapore Post Centre,,10 Eunos Road 8,Cafés,Eats
103.9623893,1.334325156,Kopitiam - Changi City Point,Changi City Point,,5 Changi Business Park Central 1,Cafés,Eats
103.7421539,1.333295062,Kopitiam - Jurong East MRT,Jurong East MRT,10,Jurong East Street 12,Cafés,Eats
103.8412365,1.417999256,Kopitiam - Wisteria Mall,Wisteria Mall,59B,Yishun Ring Road,Cafés,Eats
103.8914669,1.40212842,Kopitiam - Sumang,,231,Sumang lane,Cafés,Eats
103.7856887,1.436007845,BAGUS @ Causeway Point,Causeway Point,1,Woodlands Square,Cafés,Eats
103.8434707,1.27458821,Koufu - 100AM,100AM Shopping Mall,100,Tras Street,Cafés,Eats
103.856412,1.377892032,Koufu - AMK ITE,ITE College Central,2,Ang Mo Kio Drive,Cafés,Eats
103.80501,1.288614687,Koufu - Anchorpoint,Anchorpoint,370,Alexandra Road,Cafés,Eats
103.8373281,1.301403315,Koufu - Cathay Cineleisure Orchard,Cathay Cineleisure,8,Grange Road,Cafés,Eats
103.6997823,1.349425454,Koufu - Gek Poh Shopping Centre,Gek Poh Shopping Mall,762,Jurong West Street 75,Cafés,Eats
103.7431704,1.33320021,Koufu - JEM,JEM Shopping Mall,50,Jurong Gateway Road,Cafés,Eats
103.7715625,1.332762597,KouFu - Nee Ann Polytechnic,,51,535 Clementi Road,Cafés,Eats
103.6788181,1.346764651,Koufu - NTU,South Spine Food Court,50,Nanyang Avenue,Cafés,Eats
103.7734922,1.303995508,Koufu - NUS Utown,University Town,1,Create Way,Cafés,Eats
103.7829712,1.446237734,Koufu - Republic Polytechnic,South Food Court,9,Woodlands Avenue 9,Cafés,Eats
103.901558,1.38493202,Koufu - Rivervale Plaza,Rivervale Plaza,118,Rivervale Drive,Cafés,Eats
103.8195433,1.453845183,Koufu - Sembawang Mart,Sembawang Mart,511,Canberra Road,Cafés,Eats
103.7882145,1.306848818,Koufu - The Kitchen - The Star Vista,The Star Vista,1,Vista Exchange Green,Cafés,Eats
103.8309198,1.354669019,Koufu - Thomson Plaza,Thomson Plaza,301,Upper Thomson Road,Cafés,Eats
103.8470504,1.332965491,Koufu - Toa Payoh Centre,,500,Toa Payoh Lorong 6,Cafés,Eats
103.798141,1.445622899,Koufu - Woodland Mart - Fork & Spoon,Woodlands Mart,768,Woodlands Avenue 6,Cafés,Eats
103.798141,1.445622899,Koufu - Woodland Mart,Woodlands Mart,768,Woodlands Avenue 6,Cafés,Eats
103.7465581,1.397301904,Koufu - Yew Tee Point,Yew Tee Point,21,Choa Chu Kang North,Cafés,Eats
103.8438921,1.320429661,Koufu - Square 2,Square 2,,10 Sinaran Drive,Cafés,Eats
103.8554112,1.299113161,LeNu - Bugis Junction,Bugis Juction,200,Victoria Street,Restaurants,Eats
103.89498,1.39209415,LeNu - Compass One,Compass One,1,Sengkang Square,Restaurants,Eats
103.8215893,1.263895802,LeNu - Vivo City,Vivo City,1,Harbourfront Walk,Restaurants,Eats
103.8014895,1.440415298,McDonald's - Admiralty,,678A,Woodlands Avenue 6,Fastfood,Eats
103.8273459,1.319436168,McDonald's - Alocassia,Alocassia Building,383,Bukit Timah Road,Fastfood,Eats
103.8471539,1.369315175,McDonald's - Ang Mo Kio,Big Mac Centre,51,Ang Mo Kio Avenue 3,Fastfood,Eats
103.838169,1.373551784,McDonald's - Ang Mo Kio 4,,163,Ang Mo Kio Avenue 4,Fastfood,Eats
103.8563966,1.367441901,McDonald's - Ang Mo Kio Ave 10,,448,Ang Mo Kio Avenue 10,Fastfood,Eats
103.84474,1.372474433,McDonald's - Ang Mo Kio Park,,10,Ang Mo Kio Street 12,Fastfood,Eats
103.8510556,1.325126527,McDonald's - Balestier Shaw Plaza,Shaw Plaza (Balestier),360,Balestier Road,Fastfood,Eats
103.7762505,1.34239284,McDonald's - Beauty World,Beauty World Centre,144,Upper Bukit Timah,Fastfood,Eats
103.9292677,1.324772068,McDonald's - Bedok Mall,Bedok Mall,311,New Upper Changi Road,Fastfood,Eats
103.9253073,1.331313862,McDonald's - Bedok North,Bedok North Shopping Mall,539,Bedok North Street 3,Fastfood,Eats
103.9216633,1.337860418,McDonald's - Bedok Reservior,,744,Bedok Reservoir,Fastfood,Eats
103.9141451,1.332050943,McDonald's - Bedok Reservoir,,632,Bedok Reservoir Road,Fastfood,Eats
103.8378537,1.423877598,NTUC Foodfare - KTPH,Khoo Teck Puat Hospital (KTPH),90,Yishun Central,Supermarkets,Eats
103.8542974,1.279105668,NTUC Foodfare - MBFC,Marina Bay Financial Centre (MBFC),12,Marina Boulevard,Supermarkets,Eats
103.7990648,1.274827483,NTUC Foodfare - Mapletree Business City (Kitchen Loft),Mapletree Business City,20,Pasir Panjang Road,Supermarkets,Eats
103.7437958,1.384548392,NTUC Foodfare - Choa Chu Kang,,303,Choa Chu Kang Ave 4,Supermarkets,Eats
103.8760677,1.391393058,NTUC Foodfare - The Seletar Mall,The Seletar Mall,33,Sengkang West Avenue,Supermarkets,Eats
103.8200461,1.449050816,NTUC Foodfare - Sembawang MRT,Sembawang MRT Station,11,Canberra Road,Supermarkets,Eats
103.7401767,1.333268187,Kopitiam - Jcube,Jcube,2,Jurong East Central 1,Cafés,Eats
103.7053082,1.339364021,FEAST - Jurong Point,Jurong Point,63,Jurong West Central 2,Restaurants,Eats
103.7064609,1.339830153,Cantine @ Jurong Point,Jurong Point,1,Jurong West Central 2,Restaurants,Eats
103.8466501,1.310448527,Kopitiam - KKH,KK Women's and Children's Hospital (KKH),100,Bukit Timah Road,Cafés,Eats
103.7438655,1.335533819,Kopitiam - Ng Teng Fong Hospital,Ng Teng Fong General Hospital Tower B,2,Jurong East Street 21,Cafés,Eats
103.8436568,1.320211,Kopitiam - Novena Square,Novena Square,238,Thomson Road,Cafés,Eats
103.7827095,1.293953054,Kopitiam - NUH,"National University Hospital (NUH), Main Building Lobby",5,Lower Kent Ridge Road,Cafés,Eats
103.8450476,1.300747543,Kopitiam - Plaza Singapura,Plaza Singapura,68,68 Orchard road,Cafés,Eats
103.8348706,1.281783403,Kopitiam - SGH Housemen's Canteen,Housemen's Canteen,10,College Road,Cafés,Eats
103.8307218,1.279939682,Kopitiam - Singapore General Hospital,Singapore General Hospital (SGH),7,Outram Road,Cafés,Eats
103.8194621,1.448226532,Kopitiam - Sunplaza,Sun Plaza,30,Sembawang Drive,Cafés,Eats
103.8576755,1.294879041,Kopitiam - Suntec City,"Suntec City, Tower 3",3,Temasek Boulevard,Cafés,Eats
103.9450195,1.35431556,Kopitiam - Tampines 1,Tampines 1,10,Tampines Central 1,Cafés,Eats
103.944388,1.352672316,Kopitiam - Tampines Mall,Tampines Mall,4,Tampines Central 5,Cafés,Eats
103.9851697,1.354370736,Kopitiam - Terminal 3,Changi Airport Terminal 3,65,"Airport Boulevard, Changi Airport Terminal 2",Cafés,Eats
103.8269351,1.286463453,Kopitiam - Tiong Bahru Plaza,Tiong Bahru Plaza,302,Tiong Bahru Road,Cafés,Eats
103.845389,1.321715977,Kopitiam - TTSH,Tan Tock Seng Hospital (TTSH),11,Jalan Tan Tock Seng,Cafés,Eats
103.8625256,1.307809275,Kopitiam - V Hotel,V Hotel,70,Jellicoe Road,Cafés,Eats
103.8215893,1.263895802,Kopitiam - Vivo City,Vivo City,1,Harbourfront Walk,Cafés,Eats
103.8372422,1.423767455,Kopitiam - Yishun Community Hospital,Yishun Community Hospital,2,Yishun Central 2,Cafés,Eats
103.83171,1.438346966,Kopitiam - North Point,North Point Shopping Centre,,No. 930 Yishun Avenue 2,Cafés,Eats
103.988751,1.35519094,Kopitiam - Terminal 2,Changi Airport Terminal 2,,60 Airport Boulevard,Cafés,Eats
103.89498,1.39209415,Kopitiam - Compass One,Compass One,,1 Sengkang Drive,Cafés,Eats
103.901558,1.38493202,Kopitiam - Rivervale Plaza,Rivervale Plaza,118,Rivervale Drive,Cafés,Eats
103.7641289,1.314989185,McDonald's - Clementi Mall (Kiosk),Clementi Bus Interchange,441,Commonwealth Avenue West,Fastfood,Eats
103.8521282,1.283856981,McDonald's - Clifford Ctr,Clifford Centre,24,Raffles Place,Fastfood,Eats
103.89498,1.39209415,McDonald's - Compass Point (Sengkang),Compass One,1,Sengkang Square,Fastfood,Eats
103.9535991,1.377140734,McDonald's - Downtown East,"EHUB,Downtown East",1,Pasir Ris Close,Fastfood,Eats
103.9530245,1.342706186,McDonald's - Eastpoint Mall,Eastpoint mall,3,Simei Street 6,Fastfood,Eats
103.9424764,1.378429437,McDonald's - Elias Community Centre,Elias Community Centre,93,Pasir Ris Drive 3,Fastfood,Eats
103.7707683,1.383580441,McDonald's - Fajar,Fajar Shopping Centre,445,Fajar Road,Fastfood,Eats
103.8136963,1.322590597,McDonald's - Farrer Road,Serene Centre,10,Jalan Serene Serene Centre,Fastfood,Eats
103.828509,1.306195795,McDonald's - Forum Galleria,Forum Galleria,583,Orchard Road,Fastfood,Eats
103.8611498,1.281297198,McDonald's - Garden by the Bay,Gardens By The Bay,18,Marina Gardens Drive,Fastfood,Eats
103.6977321,1.348743572,McDonald's - Gek Poh Shopping Mall,Gek Poh Shopping Mall,762,Jurong West Street 75,Fastfood,Eats
103.8861593,1.320525957,McDonald's - Geylang East Central,,113,Aljunied Avenue 2,Fastfood,Eats
103.8317579,1.293802346,McDonald's - Great World City,Great World City,1,Kim Seng Promenade,Fastfood,Eats
103.8186256,1.262063364,McDonald's - Harbour Front Centre,Harbourfront Centre,1,Maritime Square,Fastfood,Eats
103.7627412,1.378349713,McDonald's - Hillion Mall,Hillion Mall,17,Petir Road,Fastfood,Eats
103.8866361,1.358696797,McDonald's - Hougang,Kovan City,208,Hougang Street 21,Fastfood,Eats
103.8794503,1.37566728,McDonald's - Hougang 1,Hougang 1 Shopping Mall,1,Hougang Street 91,Fastfood,Eats
103.8868985,1.373958403,McDonald's - Hougang 8,,684,Hougang Avenue 8,Fastfood,Eats
103.8901441,1.349253766,McDonald's - Hougang (Shell),Hougang (Shell),600,Hougang Avenue 3,Fastfood,Eats
103.8936616,1.372311856,McDonald's - Hougang Mall,Hougang Mall,90,Hougang Avenue 10,Fastfood,Eats
103.8175542,1.2520058,McDonald's - IFLY,Beach Station @ Sentosa,43,Siloso Beach Walk,Fastfood,Eats
103.8357008,1.300865434,McDonald's - Scape Park,SCAPE,2,Orchard Link,Fastfood,Eats
103.8760677,1.391393058,McDonald's - The Seletar Mall,The Seletar Mall,33,Sengkang West Avenue,Fastfood,Eats
103.901558,1.38493202,McDonald's - Rivervale Plaza,Rivervale Plaza,118,Rivervale Drive,Fastfood,Eats
103.8857842,1.395501587,McDonald's - Sengkang Sports Complex,Sengkang Sports & Recreation Centre,57,Anchorvale Road,Fastfood,Eats
103.8709544,1.353170074,McDonald's - Serangoon Avenue 3,,267,Serangoon Avenue 3,Fastfood,Eats
103.9231681,1.31260565,McDonald's - Siglap,Siglap Centre,55,Siglap Road,Fastfood,Eats
103.7744714,1.311239948,McDonald's - Singapore Polytechnic 2,Singapore Polytechnic,500,Dover Road,Fastfood,Eats
103.73566,1.333227323,McDonald's - Singapore Science Centre,Singapore Science Centre,15,Science Centre Road,Fastfood,Eats
103.8462463,1.27508475,McDonald's - SpringLeaf Tower,SpringLeaf Tower,3,Anson Road,Fastfood,Eats
103.8194621,1.448226532,McDonald's - Sun Plaza,Sun Plaza,30,Sembawang Drive,Fastfood,Eats
103.8576755,1.294879041,McDonald's - Suntec City,Suntec City mall,3,Temasek Boulevard,Fastfood,Eats
103.9443958,1.353918124,McDonald's - Tampines,DBS Tampines Central Branch (POSB),513,Tampines Central 1,Fastfood,Eats
103.9432506,1.353976844,McDonald's - Tampines (Kiosk),,512A,Tampines Central 1,Fastfood,Eats
103.9546205,1.353356826,McDonald's - Tampines East CC,Tampines East Community Complex,10,Tampines Street 23,Fastfood,Eats
103.944388,1.352672316,McDonald's - Tampines Mall,Tampines Mall,4,Tampines Central 5,Fastfood,Eats
103.9599065,1.354369812,McDonald's - Tampines Neighborhood 3,Tampines Mart,5,Tampines Street 32,Fastfood,Eats
103.9476302,1.349208775,McDonald's - Tampines (Shell),Tampiness Shell,9,Tampines Avenue 2,Fastfood,Eats
103.9356334,1.348750764,McDonald's - Tampines West CC,Tampines West Community Complex,5,Tampines Avenue 3,Fastfood,Eats
103.92884,1.347939478,McDonald's - Temasek Polytechnic,Temasek Polytechnic,21,Tampines Avenue 1,Fastfood,Eats
103.7912375,1.306245563,McDonald's - The Metropolis,The Metropolis,9,North Buona Vista Drive,Fastfood,Eats
103.8269351,1.286463453,McDonald's - Tiong Bahru Plaza,Tiong Bahru Plaza,302,Tiong Bahru Road,Fastfood,Eats
103.8509555,1.334041707,McDonald's - Toa Payoh Central,600@Toa Payoh,600,Toa Payoh Lorong 4,Fastfood,Eats
103.8480526,1.33257175,McDonald's - Toa Payoh HDB Center,HDB Hub Toa Payoh,490,Toa Payoh Lorong 6,Fastfood,Eats
103.7467345,1.334898437,McDonald's - IMM Building,IMM,2,Jurong East Street 21,Fastfood,Eats
103.7401767,1.333268187,McDonald's - Jcube,Jcube,2,Jurong East Central 1,Fastfood,Eats
103.7431704,1.33320021,McDonald's - JEM,,50,Jurong Gateway Road,Fastfood,Eats
103.6780964,1.324606646,McDonald's - Fairprice Hub,FairPrice Hub,1,Joo Koon Circle,Fastfood,Eats
103.8484776,1.350239427,McDonald's - Junction 8,Junction 8,9,Bishan Place,Fastfood,Eats
103.7244833,1.325925995,McDonald's - Jurong Bowl,SuperBowl Jurong,1,Yuan Ching Road,Fastfood,Eats
103.7086556,1.339174831,McDonald's - Jurong Central Park,,291,Boon Lay Way,Fastfood,Eats
103.7382576,1.344235978,McDonald's - Jurong East 24,,256,Jurong East Street 24,Fastfood,Eats
103.7253416,1.350556032,McDonald's - Jurong Green CC,Jurong Spring Community Centre,6,Jurong West Avenue 1,Fastfood,Eats
103.7064609,1.339830153,McDonald's - Jurong Point,Jurong Point,1,Jurong West Central 2,Fastfood,Eats
103.7181557,1.348330169,McDonald's - Jurong Spring CC,Jurong Spring Community Centre,8,Jurong West Street 52,Fastfood,Eats
103.8819182,1.305233707,McDonald's - Kallang,,200,Stadium Road,Fastfood,Eats
103.7488268,1.378026161,McDonald's - Keat Hong,Keat Hong,818,Choa Chu Kang Avenue 1,Fastfood,Eats
103.834595,1.416760143,McDonald's - Khatib,,846,Yishun Ring Road,Fastfood,Eats
103.8466501,1.310448527,McDonald's - KKH,KK Women's and Children's Hospital (KKH),100,Bukit Timah Road,Fastfood,Eats
103.8446689,1.291490197,McDonald's - Liang Court,Liang Court,177,River Valley Road,Fastfood,Eats
103.9646178,1.367000538,McDonald's - Loyang Point,Loyang Point,258,Pasir Ris Street 21,Fastfood,Eats
103.8433096,1.283653106,McDonald's - Lucky Chinatown Point,Lucky Chinatown,211,New Bridge Road,Fastfood,Eats
103.8339419,1.304485791,McDonald's - Lucky Plaza,Lucky Plaza,304,Orchard Road,Fastfood,Eats
103.8339419,1.304485791,McDonald's - Lucky Plaza (Kiosk),Lucky Plaza,304,Orchard Road,Fastfood,Eats
103.8570073,1.291455259,McDonald's - Marina Square,Marina Square,6,Raffles Boulevard,Fastfood,Eats
103.9129113,1.301433281,McDonald's - Marine Cove,Marine Cove,1000,East Coast Parkway,Fastfood,Eats
103.6800338,1.347130438,McDonald's - Nanyang Technological University,"Nanyang Technological University (NTU), Blk N2.1",76,Nanyang Drive,Fastfood,Eats
103.7742773,1.30132731,McDonald's - National University of Singapore,"NUS, Lee Kong Chian Natural History Museum",2,Estate Office Drive,Fastfood,Eats
103.8717045,1.350438172,McDonald's - NEX,NEX,23,Serangoon Central,Fastfood,Eats
103.8536095,1.296138733,McDonald's - North Bridge Road,KH KEA Building,333,North Bridge Road,Fastfood,Eats
103.8357765,1.42969848,McDonald's - Northpoint,North Point Shopping Centre,930,Yishun Avenue 2,Fastfood,Eats
103.849442,1.300651023,McDonald's - Parklane,Parklane Shopping Mall,35,Seletar Road,Fastfood,Eats
103.9635838,1.334265565,"Capri by Fraser Caprilicious,Delite - Changi Business Park",Changi Business Park,3,Changi Business Park Central 1,Restaurants,Eats
103.8552477,1.361913472,Chargrill Bar - Ang Mo Kio,,407,Ang Mo Kio Avenue 10,Restaurants,Eats
103.9391109,1.333133351,Chargrill Bar - Bedok,,88,Bedok North Street 4,Restaurants,Eats
103.8442758,1.357421188,Chargrill Bar - Bishan 280,,280,Bishan Street 24,Restaurants,Eats
103.7434955,1.34791303,Chargrill Bar - Bukit Batok Street 11,,155,Bukit Batok Street 11,Restaurants,Eats
103.7511929,1.36227034,Chargrill Bar - Bukit Batok Street 34,,347,Bukit Batok Street 34,Restaurants,Eats
103.7575792,1.348422645,Chargrill Bar - Bukit Batok East,,273,Bukit Batok East Ave 4,Restaurants,Eats
103.7730968,1.377275447,Chargrill Bar - Bukit Panjang Ring Road,,259,Bukit Panjang Ring Road,Restaurants,Eats
103.8225347,1.450262014,Chargrill Bar - Canberra Link,,505,Canberra Link,Restaurants,Eats
103.7479612,1.400915329,Chargrill Bar - Choa Chu Kang Crescent,,673B,Choa Chu Kang Crescent,Restaurants,Eats
103.7645186,1.314122539,Chargrill Bar - Clementi,,442,Clementi Ave 3,Restaurants,Eats
103.7633937,1.304345422,Chargrill Bar - Clementi West,,727,Clementi West Street 2,Restaurants,Eats
103.8844003,1.358162933,Chargrill Bar - Hougang,Kovan City,203,Hougang Street 21,Restaurants,Eats
103.8856366,1.373110625,Chargrill Bar - Hougang 681,,681,Hougang Ave 8,Restaurants,Eats
103.8255958,1.28263437,Chargrill Bar - Jalan Membina,,26,Jalan Membina,Restaurants,Eats
103.7396367,1.334310175,Chargrill Bar - Jurong,,132,Jurong Gateway Road,Restaurants,Eats
103.7263153,1.34958656,Chargrill Bar - Jurong West,,491,Jurong West Avenue 1,Restaurants,Eats
103.7949345,1.310741174,Chargrill Bar - Lorong Liput,,33,Lorong Liput,Restaurants,Eats
103.9077388,1.302482019,Chargrill Bar - Marine Parade Centre,,80,Marina Parade Central,Restaurants,Eats
103.8507984,1.315140196,Chargrill Bar - Owen Road,,46,Owen Road,Restaurants,Eats
103.9573481,1.369492842,Chargrill Bar - Pasir Ris,,443,Pasir Ris Drive 6,Restaurants,Eats
103.8145403,1.455512082,Chargrill Bar - Sembawang Drive,,463,Sembawang Drive,Restaurants,Eats
103.8723667,1.353880322,Chargrill Bar - Serangoon,,261,Serangoon Central Drive,Restaurants,Eats
103.8702249,1.369900391,Chargrill Bar - Serangoon North,,107,Serangoon North Ave 1,Restaurants,Eats
103.9292677,1.324772068,Hot Tomato - Bedok Mall,Bedok Mall,311,New Upper Changi Road,Restaurants,Eats
103.7856887,1.436007845,Hot Tomato - Causeway Point,Causeway Point,1,Woodlands Square,Restaurants,Eats
103.8717045,1.350438172,Hot Tomato - NEX,NEX,23,Serangoon Central,Restaurants,Eats
103.8450476,1.300747543,Hot Tomato - Plaza Singapura,Plaza Singapura,68,Orchard Road,Restaurants,Eats
103.7064609,1.339830153,Hot Tomato - Jurong Point,Jurong Point,1,Jurong West Central 2,Restaurants,Eats
103.742586,1.334025287,Hot Tomato - Westgate,Westgate,3,Gateway Drive,Restaurants,Eats
103.9890776,1.360340997,Hot Tomato - JEWEL Changi Airport,JEWEL Changi Airport,78,78 Airport Boulevard,Restaurants,Eats
103.8927244,1.317523841,Hot Tomato - Paya Lebar Quarter,Paya Lebar Quarter,10,10 Paya Lebar Road,Restaurants,Eats
103.80501,1.288614687,Jack's Place - Anchorpoint,Anchorpoint,370,Alexandra Road,Restaurants,Eats
103.8457652,1.373433684,Jack's Place - Ang Mo Kio,,730,Ang Mo Kio Ave 6,Restaurants,Eats
103.8535258,1.29701305,Jack's Place - Bras Basah Complex,Bras Basah Complex,231,Bain Street,Restaurants,Eats
103.89498,1.39209415,Jack's Place - Compass One,Compass One,1,Sengkang Square,Restaurants,Eats
103.8394347,1.300838907,Jack's Place - Orchard Central,Orchard Central,181,Orchard Road,Restaurants,Eats
103.7431704,1.33320021,Jack's Place - JEM,JEM,50,Jurong Gateway Road,Restaurants,Eats
103.8717045,1.350438172,Jack's Place - NEX,NEX,23,Serangoon Central,Restaurants,Eats
103.8493895,1.331397823,Jack's Place - Orange Tee,Orange Tee,430,Toa Payoh Lorong 6,Restaurants,Eats
103.9051136,1.301191307,Jack's Place - Parkway Parade,Parkway Parade,80,Marine Parade Road,Restaurants,Eats
103.9060319,1.410113282,Jack's Place - Punggol SAFRA,,9,Sentul Crescent,Restaurants,Eats
103.7062787,1.335007217,Jack's Place - Safra Jurong,Safra Club (Jurong),333,Boon Lay Way,Restaurants,Eats
103.7638373,1.309551379,Jack's Place - West Coast,,12,West Coast Walk,Restaurants,Eats
103.7866196,1.435077886,Jack's Place - Woodlands Civic,Woodlands Civic Centre,900,South Woodlands Drive,Restaurants,Eats
103.9890776,1.360340997,Jack's Place - Jewel,JEWEL Changi Airport,78,Aiport Boulevard,Restaurants,Eats
103.8180782,1.282055393,Kampong Group - Bukit Merah Central,,3500A,Bukit Merah Central,Restaurants,Eats
103.8559937,1.306172782,Kampong Group - Jalan Besar,,"104,106",Jalan Besar,Restaurants,Eats
103.7948254,1.331211827,Chargrill Bar - Sixth Avenue,,10E,Sixth Avenue,Restaurants,Eats
103.9406956,1.324058985,Chargrill Bar - Upper Changi Road,,59,Upper Changi Road,Restaurants,Eats
103.8462845,1.424420951,Chargrill Bar - Yishun 417,,417,Yishun Ave 11,Restaurants,Eats
103.7758841,1.433593696,Chargrill Bar - Woodlands 167,,167,Woodlands Street 11,Restaurants,Eats
103.9292677,1.324772068,Dian Xiao Er - Bedok Mall,Bedok Mall,311,New Upper Changi Road,Restaurants,Eats
103.7628428,1.378431008,Dian Xiao Er - Hillion Mall,,15,Petir Road,Restaurants,Eats
103.7431704,1.33320021,Dian Xiao Er - JEM,JEM,50,Jurong Gateway Road,Restaurants,Eats
103.8484776,1.350239427,Dian Xiao Er - Junction 8,Junction 8,9,Bishan Place,Restaurants,Eats
103.7053082,1.339364021,Dian Xiao Er - Jurong Point II,Jurong Point,63,Jurong West Central 2,Restaurants,Eats
103.7449504,1.385068357,Dian Xiao Er - Lot One,Lot One,21,Choa Chu Kang Avenue 4,Restaurants,Eats
103.8570073,1.291455259,Dian Xiao Er - Marina Square,Marina Square,203,Marina Way,Restaurants,Eats
103.8717045,1.350438172,Dian Xiao Er - NEX,NEX,23,Serangoon Central,Restaurants,Eats
103.9851697,1.354370736,Dian Xiao Er - Terminal 3,Changi Airport Terminal 3,65,"Airport Boulevard, Changi Airport Terminal 3",Restaurants,Eats
103.8215893,1.263895802,Dian Xiao Er - Vivo City,Vivo City,1,Harbourfront Walk,Restaurants,Eats
103.8101126,1.304119795,Dome - Dempsey Hill,Dempsey Hill,11,Dempsey Road,Restaurants,Eats
103.7467345,1.334898437,Dome - IMM,IMM,2,Jurong East street 21,Restaurants,Eats
103.9051136,1.301191307,Dome - Parkway parade,Parkway Parade,80,Marine Parade Road,Restaurants,Eats
103.8315074,1.305809784,Dome - Shaw House,Isetan Scotts Shaw House,350,Orchard Road,Restaurants,Eats
103.8502464,1.285573967,Dome - UOB Plaza 1,UOB Plaza 1,80,Raffles place,Restaurants,Eats
103.742586,1.334025287,Earle Swensen - Westgate,,3,Gateway Drive,Restaurants,Eats
103.8215893,1.263895802,Earle Swensen - Vivo City,Vivo City,1,Harbourfront Walk,Restaurants,Eats
103.8483992,1.369248913,Fish & Co - AMK HUB,AMK Hub,53,Ang Mo Kio Avenue 3,Restaurants,Eats
103.988751,1.35519094,Fish & Co - Changi Airport Terminal 2,Changi Airport Terminal 2,60,"Airport Boulevard, Changi Airport Terminal 2",Restaurants,Eats
103.7642482,1.314853218,Fish & Co - Clementi Mall,Clementi Mall,3155,Commonwealth Avenue West,Restaurants,Eats
103.7064609,1.339830153,Fish & Co - Jurong Point,Jurong Point,1,Jurong West Central 2,Restaurants,Eats
103.8215893,1.263895802,Fish & Co - Vivo City,Vivo City,20,Keppel Bay Drive,Restaurants,Eats
103.8717045,1.350438172,Fish & Co - NEX,NEX,23,Serangoon Central,Restaurants,Eats
103.8436568,1.320211,Fish & Co - Novena Square,Novena Square,250,Thomson Road,Restaurants,Eats
103.8352403,1.303723214,Fish & Co - Paragon,Paragon,290,Orchard Road,Restaurants,Eats
103.8194621,1.448226532,Fish & Co - Sun Plaza,Sun Plaza,30,Sembwang Road,Restaurants,Eats
103.9450195,1.35431556,Fish & Co - Tampines One,Tampines One,10,Tampines Central 1,Restaurants,Eats
103.8535181,1.299660159,Fish & Co - Bugis +,Bugis Junction,201,Victoria Street,Restaurants,Eats
103.8760677,1.391393058,Fish & Co - Seletar Mall,The Seletar Mall,33,Sengkang West Avenue,Restaurants,Eats
103.9019882,1.406536107,Fish & Co - Waterway Point,Waterway point,83,Punggol Central,Restaurants,Eats
103.9050439,1.305223056,Formosa Delight - 112 Katong,112 Katong,112,East Coast Road,Restaurants,Eats
103.8376844,1.301385095,Formosa Delight - 313 @ Somerset,313 @ Somerset,313,Orchard Road,Restaurants,Eats
103.8554112,1.299113161,Formosa Delight - Bugis Junction,Bugis Junction,200,Victoria Stree,Restaurants,Eats
103.7856887,1.436007845,Formosa Delight - Causeway Point,Causeway Point,1,Woodlands Square,Restaurants,Eats
103.9437277,1.352278032,Formosa Delight - Century Square,Century Square,2,Tampines Central 5,Restaurants,Eats
103.9530245,1.342706186,Formosa Delight - East Point Mall,Food Junction,3,Simei Street 6,Restaurants,Eats
103.8717045,1.350438172,Formosa Delight - NEX,NEX,23,Serangoon Central,Restaurants,Eats
103.9051136,1.301191307,Formosa Delight - Parkway Parade,Parkway Parade,80,Marine Parade Road,Restaurants,Eats
103.8527683,1.293760279,Formosa Delight - Raffles City Shopping Centre,Raffles City Shopping Centre,252,North Bridge Road,Restaurants,Eats
103.8576755,1.294879041,Formosa Delight - Suntec City,Suntec City,3,Temasek Boulevard,Restaurants,Eats
103.8896375,1.334345263,Formosa Delight - Tai Seng,BreadTalk IHQ,30,Tai Seng Street,Restaurants,Eats
103.8215893,1.263895802,Formosa Delight - Vivo City,Vivo City,1,Harbourfront Walk,Restaurants,Eats
103.8331896,1.303698902,Formosa Delight - Wisma Atria,Wisma Atria,435,Orchard Road,Restaurants,Eats
103.7686936,1.292934363,Formosa Delight - ?????? (Restaurant),,20,Clementi Road,Restaurants,Eats
103.7856887,1.436007845,A-ONE Claypot House - Causeway Point,Causeway Point,1,Woodlands Square,Restaurants,Eats
103.8446971,1.284998828,A-ONE Claypot House - Chinatown point,Chinatown point,133,New Bridge Road,Restaurants,Eats
103.8484776,1.350239427,A-ONE Claypot House - Junction 8,Junction 8,9,Bishan Place,Restaurants,Eats
103.7064609,1.339830153,A-ONE Claypot House - Jurong Point 1,Jurong Point 1,1,Jurong West Central,Restaurants,Eats
103.8717045,1.350438172,A-ONE Claypot House - Nex,Nex,23,Serangoon Central,Restaurants,Eats
103.8576755,1.294879041,A-ONE Claypot House - Suntect City Mall,Suntect City Mall,3,Temaske Boulevard,Restaurants,Eats
103.9450195,1.35431556,A-ONE Claypot House - Tampines One,Tampines One,10,Tampines Central,Restaurants,Eats
103.8760677,1.391393058,A-ONE Claypot House - The Seletar Mall,The Seletar Mall,33,Sengkang West Ave,Restaurants,Eats
103.8215893,1.263895802,A-ONE Claypot House - Vivo City,Vivo City,1,Harbourfront Walk,Restaurants,Eats
103.8727507,1.303843268,A-ONE Claypot House - Kallang Wave Mall,Kallang Wave Mall,1,Stadium Place,Restaurants,Eats
103.9292677,1.324772068,A-ONE Claypot House - Bedok Mall,Bedok Mall,311,New Upper Changi Road,Restaurants,Eats
103.89498,1.39209415,A-ONE Claypot House - Compass One,Compass One,1,Sengkang West Avenue,Restaurants,Eats
103.7627412,1.378349713,A-ONE Claypot House - Hillion Mall,Hillion Mall,17,Petir Road,Restaurants,Eats
103.8357765,1.42969848,A-ONE Claypot House - Northpoint City,North Point Shopping Centre,930,Yishun Ave 2,Restaurants,Eats
103.7882145,1.306848818,A-ONE Claypot House - The Star Vista,The Star Vista,1,Vista Exchange Green,Restaurants,Eats
103.8269351,1.286463453,A-ONE  Claypot House - Tiong Bahru Plaza,Tiong Bahru Plaza,302,Tiong Bahru Road,Restaurants,Eats
103.9050439,1.305223056,Canton Paradise - 112 Katong,112 Katong,112,East Coast Road,Restaurants,Eats
103.801127,1.273676578,Canton Paradise - Alexandra Retail Centre,PSA Building,460,Alexander Road,Restaurants,Eats
103.8483992,1.369248913,Canton Paradise - AMK Hub,AMK Hub,53,Ang Mo Kio Aveune 3,Restaurants,Eats
103.9292677,1.324772068,Canton Paradise - Bedok Mall,Bedok Mall,311,New Upper Changi Road,Restaurants,Eats
103.89498,1.39209415,Canton Paradise - Compass One,Compass One,1,Sengkang Square,Restaurants,Eats
103.7401767,1.333268187,Canton Paradise - Jcube,Jcube,2,Jurong East Central 1,Restaurants,Eats
103.7882145,1.306848818,Canton Paradise - The Star Vista,The Star Vista,1,Vista Exchange Green,Restaurants,Eats
103.8614038,1.318176421,McDonald's - Bendemeer,,22,Boon Keng Road,Fastfood,Eats
103.8466134,1.361097524,McDonald's - Bishan Park,,1378,Ang Mo Kio Avenue 1,Fastfood,Eats
103.848714,1.287242313,McDonald's - Boat Quay,Boat Quay Conservation Area,1,South Canal Road,Fastfood,Eats
103.9533713,1.343203414,NTUC Foodfare - Simei MRT,Simei MRT Station,30,Simei Street 3,Supermarkets,Eats
103.9535991,1.377140734,NTUC Foodfare - Downtown East,E! Avenue @ Downtown East,,1 Pasir Ris Close,Supermarkets,Eats
103.9834828,1.338008134,NTUC Foodfare - Changi Airport Terminal 4,Changi Airport Terminal 4,,10 Airport Boulevard,Supermarkets,Eats
103.8014895,1.440415298,NTUC Foodfare - Admiralty,,678A,Woodlands Ave 6,Supermarkets,Eats
103.7501283,1.366798836,NTUC Foodfare - Bukit Batok Drive Centre,Bukit Batok Driving Centre,815,Bukit Batok West Ave 5,Supermarkets,Eats
103.7742773,1.30132731,NUS - Frontier,National University of Singapore Faculty of Science,21,Lower Kent Ridge Road,Restaurants,Eats
103.7802084,1.296779234,NUS - Platypus Food Bar S16,National University of Singapore Faculty of Science,3,Blk S16  3 Science Drive 2,Restaurants,Eats
103.7742773,1.30132731,NUS - TechnoEdge,National University of Singapore Faculty of Engineering,21,Lower Kent Ridge Road,Restaurants,Eats
103.7742773,1.30132731,NUS - The Deck,National University of Singapore Faculty of Arts & Social Sciences,21,Lower Kent Ridge Road,Restaurants,Eats
103.7702087,1.295329402,NUS- Humble Origins,National University of Singapore Ventus University Campus Infrastructure,8,Kent Ridge Drive,Restaurants,Eats
103.7734922,1.303995508,NUS- Hwang's @ Utown,,1,CREATE WAY,Restaurants,Eats
103.7742773,1.30132731,NUS- Indonesian Express,National University of Singapore The Deck,21,Lower Kent Ridge Road,Restaurants,Eats
103.7742773,1.30132731,NUS- Liang Ban Kung Fu,National University of Singapore The Deck,21,Lower Kent Ridge Road,Restaurants,Eats
103.7702087,1.295329402,NUS- Reedz,National University of Singapore Mochtar Riady Building  Business School,15,Kent Ridge Drive,Restaurants,Eats
103.7813045,1.290799469,NUS- Route 77,,27,Prince George’s Park Residences,Restaurants,Eats
103.7734922,1.303995508,NUS- Spice Table,Town Plaza University Town,1,Create Way,Restaurants,Eats
103.7742773,1.30132731,NUS- Spinelli Uhall,National University of Singapore  University Hall,21,Lower Kent Ridge Road,Restaurants,Eats
103.7449504,1.385068357,Pizza Hut - Lot 1,Lot One,21,Choa Chu Kang Avenue 4,Fastfood,Eats
103.8570073,1.291455259,Pizza Hut - Marina Square,Marina Square,,No. 6 Raffles Boulevard,Fastfood,Eats
103.8717045,1.350438172,Pizza Hut - NEX,NEX,23,Serangoon Central,Fastfood,Eats
103.8357765,1.42969848,Pizza Hut - North Point Shopping Centre,North Point Shopping Centre,930,Yishun Avenue 2,Fastfood,Eats
103.7723962,1.304776877,Pizza Hut - NUS (EXP),University Town Edusports National University of Singapore (NUS,2,College Avenue West,Fastfood,Eats
103.7709914,1.294490839,Pizza Hut - NUS 2 (EXP),NUS The Deck,5,Arts Link,Fastfood,Eats
103.9535991,1.377140734,"PastaMania - EHUB,Downtown East","EHUB,Downtown East",1,Pasir Ris Close,Restaurants,Eats
103.6780964,1.324606646,PastaMania - FairPrice Hub,FairPrice Hub,1,Joo Koon Circle,Restaurants,Eats
103.8186256,1.262063364,PastaMania - Harbourfront Centre,Harbourfront Centre,1,Maritime Square,Restaurants,Eats
103.8399342,1.288231009,Rice Garden - Jalan Kukoh,,1,Jalan Kukoh,Restaurants,Eats
103.7627412,1.378349713,PastaMania - Hillion,Hillion Mall,17,Petir Road,Restaurants,Eats
103.7431704,1.33320021,PastaMania - JEM,JEM,52,Jurong Gateway Road,Restaurants,Eats
103.7288353,1.346215609,PastaMania - Jurong East Sports & Recreation Centre,Jurong East Sports & Recreation Centre,21,Jurong East Street 31,Restaurants,Eats
103.8761527,1.302221771,PastaMania - Leisure Park Kallang (Closed for Renovation),Kallang Leisure Park,5,Stadium Walk,Restaurants,Eats
103.7449504,1.385068357,PastaMania - Lot One,Lot One,21,Choa Chu Kang Avenue 4,Restaurants,Eats
103.7990648,1.274827483,PastaMania - Mapletree Business City,Mapletree Business City,20,Pasir Panjang Road,Restaurants,Eats
103.8717045,1.350438172,PastaMania - NEX,NEX,23,Serangoon Central,Restaurants,Eats
103.8357765,1.42969848,PastaMania - Northpoint,North Point Shopping Centre,930,Yishun Avenue 2,Restaurants,Eats
103.8857842,1.395501587,PastaMania - Seng Kang Sports & Recreation Centre,Sengkang Sports & Recreation Centre,57,Anchorvale Road,Restaurants,Eats
103.8501058,1.296656785,PastaMania - SMU,Singapore Management University (SMU),70,Stamford Road,Restaurants,Eats
103.944388,1.352672316,PastaMania - Tampines Mall,Tampines Mall,4,Tampines Central 5,Restaurants,Eats
103.922103,1.32365172,PastaMaina - Viva Business Park,Viva Business Park,750,Chai Chee Road,Restaurants,Eats
103.749022,1.35018916,PastaMania - West Mall,West Mall,1,Bukit Batok Central Link,Restaurants,Eats
103.7233453,1.315992173,PastaMania - Commonwealth Capital Building,Commonwealth Capital Building,7,Buroh Lane,Restaurants,Eats
103.988751,1.35519094,Penang Culture - Changi Airport Terminal 2,Changi Airport Terminal 2,60,Airport Boulevard Terminal departure viewing mall,Restaurants,Eats
103.9606162,1.408455724,Penang Culture - JEM,JEM,50,Jurong Gateway Road,Restaurants,Eats
103.89498,1.39209415,Penang Culture - Compass One,Compass One,1,Sengkang Square,Restaurants,Eats
103.7856887,1.436007845,Penang Culture - Causeway Point,Causeway Point,1,Woodlands Square,Restaurants,Eats
103.9497157,1.372449816,Penang Culture - White Sands,White Sands Shopping Centre,1,Pasir Ris Central Street 3,Restaurants,Eats
103.8717045,1.350438172,Penang Culture - NEX,NEX,23,Serangoon Central,Restaurants,Eats
103.8449013,1.286728526,Pizza Hut - Havelock II (DEL),,2,Havelock Road,Fastfood,Eats
103.7963991,1.312240293,Pizza Hut - Holland Village MRT (EXP),,200,Holland Avenue Holland Vilalge MRT Station,Fastfood,Eats
103.887832,1.379245284,Pizza Hut - Hougang Green (DEL),Hougang Green Shopping Mall,21,Hougang Street 51,Fastfood,Eats
103.8936616,1.372311856,Pizza Hut - Hougang Mall,Hougang Mall,90,Hougang Avenue 10,Fastfood,Eats
103.7467345,1.334898437,Pizza Hut - IMM (EXP),IMM Building,2,Jurong East Street 21,Fastfood,Eats
103.706127,1.320768728,Pizza Hut - Jurong Bird Park (EXP),Jurong Bird Park,2,Jurong Hill,Fastfood,Eats
103.8727837,1.395874363,Pizza Hut - Jalan Kayu (DEL),,225,Jalan Kayu,Fastfood,Eats
103.8262925,1.443993547,Pizza Hut - Jalan Malu Malu (DEL),,66,Jalan Malu Malu,Fastfood,Eats
103.7288353,1.346215609,Pizza Hut - Jurong East Swimming Complex (DEL),Jurong East Sports & Recreation Centre,21,Jurong East Street 31,Fastfood,Eats
103.7064609,1.339830153,Pizza Hut - Jurong Point,Jurong Point,1,Jurong West Central 2,Fastfood,Eats
103.7252215,1.325468071,Pizza Hut - Jurong Superbowl (DEL),Jurong Leisure Complex Jurong Superbowl,3,Yuan Ching Road,Fastfood,Eats
103.8696908,1.320539167,Pizza Hut - Kallang Bahru (DEL),,66,Kallang Bahru Stall 7,Fastfood,Eats
103.9007501,1.317846431,Pizza Hut - Kampong Ubi Community Centre (DEL),Kampong Ubi Community Centre,10,Jalan Ubi,Fastfood,Eats
103.9050439,1.305223056,Pizza Hut - Katong 112 (EXP),Katong,112,East Coast Road,Fastfood,Eats
103.7457082,1.377022654,Pizza Hut - Keat Hong (DEL),,184A,Choa Chu Kang Avenue 1 Comfort Garden,Fastfood,Eats
103.8202775,1.251260525,Pizza Hut - Kidzania (EXP),KidZania,31,Beach View,Fastfood,Eats
103.8421844,1.280611449,Pizza Hut - Kreta Ayer Delco (DEL),,29,Kreta Ayer Road,Fastfood,Eats
103.8462025,1.34123727,McDonald's - Toa Payoh Lorong 1,,109,Toa Payoh Lorong 1,Fastfood,Eats
103.751673,1.328228101,McDonald's - Trade Hub 21,Trade Hub 21,28,Boon Lay Way,Fastfood,Eats
103.8434632,1.31733463,McDonald's - United Square,United Square,101,Thomson Road,Fastfood,Eats
103.8215893,1.263895802,McDonald's - Vivo City,Vivo City,1,Harbourfront Walk,Fastfood,Eats
103.9019882,1.406536107,McDonald's - Water Way Point,Waterway point,83,Punggol Central,Fastfood,Eats
103.7633016,1.297549241,McDonald's - West Coast Park,,71,West Coast Highway,Fastfood,Eats
103.7690986,1.441088681,McDonald's - Woodlands,Woodlands Point,268,Woodlands Centre Road,Fastfood,Eats
103.7866196,1.435077886,McDonald's - Woodlands Civic Centre,Woodlands Civic Centre,900,South Woodlands Drive,Fastfood,Eats
103.798141,1.445622899,McDonald's - Woodlands Mart,Woodlands Mart,768,Woodlands Avenue 6,Fastfood,Eats
103.8409019,1.424298415,McDonald's - Yishun Safra,Safra Yishun Country Club,60,Yishun Ave 4,Fastfood,Eats
103.8260519,1.426907808,McDonald's - Yishun,,369,Sembawang Road,Fastfood,Eats
103.8376052,1.436114246,McDonald's - Yishun Ring Road,,293,Yishun Street 22,Fastfood,Eats
103.8625256,1.307809275,McDonald's - V Hotel Lavender,V Hotel,70,Jellicoe Road,Fastfood,Eats
103.9651188,1.334756758,Munch - Changi Business Park (The Signature),Lan Kwai Fong Food Mall,51,Changi Business Park Central 2,Cafés,Eats
103.8528404,1.279446187,Munch - Downtown Station,,15,Central Boulevard Downtown Line,Cafés,Eats
103.8443196,1.274617939,Munch - Icon Village,,16,Enggor Street,Cafés,Eats
103.8509824,1.284339935,Munch - One Raffles Place,,,One Raffles Place,Cafés,Eats
103.8925506,1.31867575,Munch - Paya Lebar Square,,60,Paya Lebar Road,Cafés,Eats
103.8488164,1.279282324,Munch - Robinson Road (Headquarter),,112,Robinson Road,Cafés,Eats
103.8269351,1.286463453,Munch - Tiong Bahru Plaza,Tiong Bahru Plaza,302,Tiong Bahru Road,Cafés,Eats
103.8483992,1.369248913,NTUC Foodfare - AMK Hub,AMK Hub,53,Ang Mo Kio Ave 3,Supermarkets,Eats
103.7642482,1.314853218,NTUC Foodfare - Clementi Mall,Clementi Mall,3155,Commonwealth Avenue West,Supermarkets,Eats
103.8521282,1.283856981,NTUC Foodfare - Clifford Centre,Clifford Centre,24,Raffles Place,Supermarkets,Eats
103.6780964,1.324606646,NTUC Foodfare - FairPrice Hub,FairPrice Hub,1,Joo Koon Circle,Supermarkets,Eats
103.8717045,1.350438172,Soup Restaurant - NEX,NEX,23,Serangoon Central,Restaurants,Eats
103.8352403,1.303723214,Soup Restaurant - Paragon,Lucky Plaza,290,Orchard road,Restaurants,Eats
103.8576755,1.294879041,Soup Restaurant - Suntec City,Suntec City,3,Temasek Boulevard,Restaurants,Eats
103.8493839,1.331676564,Soup Restaurant - Toa Payoh,Toa Payoh Entertainment Centre,450,Toa Payoh Lorong 6,Restaurants,Eats
103.8434632,1.31733463,Soup Restaurant - United Square,United Square,101,Thomson Road,Restaurants,Eats
103.8215893,1.263895802,Soup Restaurant - Vivo City,Vivo City,1,Harbourfront Walk,Restaurants,Eats
103.80501,1.288614687,Subway - Anchorpoint,Anchorpoint,370,Alexandra Road,Cafés,Eats
103.8459054,1.370973299,Pizza Hut - Ang Mo Kio,,715,Ang Mo Kio Avenue 6,Fastfood,Eats
103.8554554,1.372343579,Pizza Hut - Ang Mo Kio 2 (DEL),,529,Ang Mo Kio Avenue 10,Fastfood,Eats
103.801127,1.273676578,Pizza Hut - ARC (EXP),ARC,460,Alexandra Road Alexandra Retail Centre,Fastfood,Eats
103.8617336,1.301622866,Pizza Hut - Beach Road (DEL),,353,Beach Road,Fastfood,Eats
103.9474373,1.323665725,Pizza Hut - Bedok Mall,Bedok Mall,311,New Upper Changi Road,Fastfood,Eats
103.9253073,1.331313862,Pizza Hut - Bedok North (DEL),,539,Bedok North Street 3,Fastfood,Eats
103.7113802,1.348323225,Pizza Hut - Boon Lay Community Centre (DEL),Boon Lay Community Centre,10,Boon Lay Place,Fastfood,Eats
103.7428079,1.347162358,Pizza Hut - Bukit Batok (DEL),,166,Bukit Batok West Avenue 8E,Fastfood,Eats
103.7517909,1.358611582,Pizza Hut - Bukit Gombak (EXP),,802,Bukit Gombak West Avenue 5 Bukit Gombak,Fastfood,Eats
103.8174661,1.283837301,Pizza Hut - Bukit Merah (DEL),,162,Bukit Merah Central,Fastfood,Eats
103.7639619,1.380517328,Pizza Hut - Bukit Panjang Plaza,Bukit Panjang Plaza,1,Jelebu Road,Fastfood,Eats
103.7785605,1.338656769,Pizza Hut - Bukit Timah Plaza,Bukit Timah Plaza,,Jalan Anak Bukit,Fastfood,Eats
103.7856887,1.436007845,Pizza Hut - Causeway Point,Causeway Point,1,Woodlands Square,Fastfood,Eats
103.7441391,1.385672711,Pizza Hut - Choa Chu Kang MRT Station,Choa Chu Kang MRT Station,10,Choa Chu Kang Avenue 4,Fastfood,Eats
103.7479207,1.39066617,Pizza Hut - Choa Chu Kang Sports Centre (DEL),Choa Chu Kang Sports Centre,1,Choa Chu Kang Street 53,Fastfood,Eats
103.8564218,1.311305165,Pizza Hut - City Square Mall,City Square Mall,180,Kitchener Road,Fastfood,Eats
103.89498,1.39209415,Pizza Hut - Compass One,Compass One,1,Sengkang Square,Fastfood,Eats
103.8111549,1.323026448,Pizza Hut - Crown Centre (DEL),Crown Centre,557,Bukit Timah Road,Fastfood,Eats
103.9535991,1.377140734,Pizza Hut - Downtown East (DEL),NTUC Downtown East Resort,1,Pasir Ris Close,Fastfood,Eats
103.9530245,1.342706186,Pizza Hut - East Point Mall,Eastpoint mall,3,Simei Street 6,Fastfood,Eats
103.768807,1.336413968,Pizza Hut - Eng Kong Terrace (DEL),,3,Eng Kong Terrace,Fastfood,Eats
103.7885329,1.310081174,Pizza Hut - Ghim Moh Delco (DEL),,21,Ghim Moh,Fastfood,Eats
103.7661705,1.385295565,Pizza Hut - GreenRidge (DEL),Greenridge Shopping Centre,524A,Jelapang Road,Fastfood,Eats
103.8186256,1.262063364,Pizza Hut - Harbourfront Centre,Harbourfront Centre,,Maritime Square,Fastfood,Eats
103.8944805,1.314692127,Pizza Hut - OneKM (Fast Casual),OneKM,11,Tanjong Katong Road,Fastfood,Eats
103.7627412,1.378349713,Pizza Hut - Hillion Mall,Hillion Mall,17,Petir Road,Fastfood,Eats
103.8450476,1.300747543,Pizza Hut - Plaza Singapura,Plaza Singapura,68,Orchard Road,Fastfood,Eats
103.9129764,1.394184091,Pizza Hut - Punggol Plaza (DEL),Punggol Plaza,168,Punggol Field,Fastfood,Eats
103.9060319,1.410113282,Pizza Hut - SAFRA Punggol (DEL),Safra Punggol,9,Sentul Crescent,Fastfood,Eats
103.885706,1.362072785,Pizza Hut - Simon Road (DEL),,23,Simon Road,Fastfood,Eats
103.8936616,1.372311856,Pizza Hut - Sun Plaza,Sun Plaza,90,Hougang Ave 10,Fastfood,Eats
103.9396836,1.353496155,Pizza Hut - Tampines Hub (EXP),Our Tampines Hub,51,Tampines Avenue 4,Fastfood,Eats
103.944388,1.352672316,Pizza Hut - Tampines Mall,Tampines Mall,4,Tampines Central 5,Fastfood,Eats
103.9599002,1.354549434,Pizza Hut - Tampines Mart (DEL),Tampines Mart,11,Tampines St 32,Fastfood,Eats
103.9442846,1.34607675,Pizza Hut - Tampines New Town (DEL),,139,Tampines Street 11,Fastfood,Eats
103.895305,1.308171796,Pizza Hut - Tanjong Katong (DEL),,251,Tanjong Katong Road,Fastfood,Eats
103.8454218,1.276516012,Pizza Hut - Tanjong Pagar MRT (EXP),,120,Maxwell Road,Fastfood,Eats
103.8760677,1.391393058,Pizza Hut - The Seletar Mall,The Seletar Mall,33,Sengkang West Avenue,Fastfood,Eats
103.9651188,1.334756758,"Pizza Hut - The Signature, CBP (DEL)",The Signature,51,Changi Business Park Central 2,Fastfood,Eats
103.8309198,1.354669019,Pizza Hut - Thomson Plaza,Thomson Plaza,301,Upper Thomson Road,Fastfood,Eats
103.8479654,1.332975621,Pizza Hut - Toa Payoh,,190,Toa Payoh Lorong 6,Fastfood,Eats
103.8484286,1.336285354,Pizza Hut - Toa Payoh 2 (DEL),,85,Lorong 4 Toa Payoh,Fastfood,Eats
103.7742773,1.30132731,NUS- The Terrace,National University of Singapore School of Computing,21,Lower Kent Ridge Road,Restaurants,Eats
103.7720082,1.301675037,NUS-Alcove,University Cultural Centre,50,Kent Ridge Crescent,Restaurants,Eats
103.7723962,1.304776877,NUS-Flavors@Utown,,2,College Avenue West,Restaurants,Eats
103.7856887,1.436007845,Paradise Dynasty - Causeway Point,Causeway Point,1,Woodlands Square,Restaurants,Eats
103.8313951,1.30403577,Paradise Dynasty - ION,ION Orchard,2,Orchard Turn,Restaurants,Eats
103.7449504,1.385068357,Paradise Dynasty - Lot ONE,Lot One,21,Choa Chu Kang Avenue 4,Restaurants,Eats
103.8944805,1.314692127,Paradise Dynasty - OneKM,OneKM,11,Tanjong Katong Road,Restaurants,Eats
103.9851697,1.354370736,Paradise Dynasty - Terminal 3,Changi Airport terminal 3,65,Airport Boulevard,Restaurants,Eats
103.8215893,1.263895802,Paradise Dynasty - Vivo City,Vivo City,1,Harbourfront Walk,Restaurants,Eats
103.742586,1.334025287,Paradise Dynasty - Westgate,Westgate,3,Gateway Drive,Restaurants,Eats
103.8376844,1.301385095,Paradise Inn - 313 @ Somerset,313 @ Somerset,313,Orchard Road,Restaurants,Eats
103.9323601,1.324961423,Paradise Inn - Bedok Point,Bedok Point,799,Upper Changi Road,Restaurants,Eats
103.8564218,1.311305165,Paradise Inn - City Square Mall,City Square Mall,180,Kitchener Road,Restaurants,Eats
103.9530245,1.342706186,Paradise Inn - Eastpoint mall,Eastpoint Mall,3,Simei Street 6,Restaurants,Eats
103.9897073,1.362491004,Paradise Inn - Marina Bay Link mall,Marina Bay Link Mall,8A,Marina Boulevard,Restaurants,Eats
103.8576755,1.294879041,Paradise Inn - Suntec City,Suntec City Mall,3,Temasek Boulevard,Restaurants,Eats
103.9897073,1.362491004,Paradise Inn - Terminal 1,Changi Airport terminal 1,80,Airport Boulevard viewing gallery,Restaurants,Eats
103.8760677,1.391393058,Paradise Inn - The Seletar Mall,The Seletar Mall,33,Sengkang West Avenue,Restaurants,Eats
103.8309198,1.354669019,Paradise Inn - Thomson Plaza,Thomson Plaza,301,Upper Thomson Road,Restaurants,Eats
103.7652845,1.303582681,Paradise Inn - West Coast Plaza,West Coast Plaza Shopping Mall,154,West coast road,Restaurants,Eats
103.8944805,1.314692127,ParaThai - OneKM,OneKM,11,Tanjong Katong Road,Restaurants,Eats
103.8498318,1.286037369,Pasta Fresca Da Salvatore - Boat Quay,,30,Boat Quay,Restaurants,Eats
103.7956924,1.330817401,Pasta Fresca Da Salvatore - Guthrie House,Guthrie House,1,Fifth Avenue,Restaurants,Eats
103.9255946,1.312963728,Pasta Fresca Da Salvatore - East Coast Road,,9,Upper East Coast Road,Restaurants,Eats
103.8545878,1.36209053,PastaMania - Ang Mo Kio Delivery Hub,Ang Mo Kio Delivery Hub,408,Ang Mo Kio Avenue 10,Restaurants,Eats
103.8484776,1.350239427,PastaMania - Bishan Junction 8,Junction 8,9,Bishan Place,Restaurants,Eats
103.8554112,1.299113161,PastaMania - Bugis Junction,Bugis Junction,200,Victoria Street,Restaurants,Eats
103.8364297,1.301521016,PastaMania - Cathay Cineleisure,Cathay Cineleisure,8,Grange Road,Restaurants,Eats
103.7856887,1.436007845,PastaMania - Causeway Point,Causeway Point,1,Woodlands Square,Restaurants,Eats
103.8564218,1.311305165,PastaMania - City Square Mall,City Square Mall,180,Kitchener Road,Restaurants,Eats
103.8354876,1.316439626,Subway - Balmoral Plaza,Balmoral Plaza,271,Bukit Timah Road,Restaurants,Eats
103.8434707,1.27458821,Subway - 100AM,100AM Shopping Mall,100,Tras Street,Restaurants,Eats
103.8376844,1.301385095,Subway - 313 @ Somerset,313 @ Somerset,313,Orchard Road,Restaurants,Eats
103.8273459,1.319436168,Subway - Alocassia,Alocassia Building,383,Bukit Timah Road,Restaurants,Eats
103.8483992,1.369248913,Subway - AMK Hub,AMK Hub,53,Ang Mo Kio Ave 3,Restaurants,Eats
103.8507952,1.278307291,Subway - Asia Square Tower 2,Asia Square Tower 2,12,Marina View,Restaurants,Eats
103.9323601,1.324961423,Subway - Bedok Mall,Bedok Mall,311,New Upper Changi Road,Restaurants,Eats
103.9216633,1.337860418,Subway - Bedok Reservoir,,744,Bedok Reservoir Road,Restaurants,Eats
103.8628158,1.318838153,Subway - Bendemeer Shopping Mall,Bendemeer Shopping Mall,27,Bendeemer Road,Restaurants,Eats
103.8896375,1.334345263,Subway - Breadtalk IHQ,Breadtalk IHQ,30,Tai Seng Street,Restaurants,Eats
103.8554112,1.299113161,Subway - Bugis Junction,Bugis Junction,200,Victoria Street,Restaurants,Eats
103.8535181,1.299660159,Subway - Bugis+,Bugis+,201,Victoria Street,Restaurants,Eats
103.9292677,1.324772068,Subway - Bukit Batok West,,802,Bukit Batok West Ave 5,Restaurants,Eats
103.8166928,1.283055888,Subway - Bukit Merah Central,,165,Bukit Merah Central,Restaurants,Eats
103.7639619,1.380517328,Subway - Bukit Panjang Plaza,Bukit Panjang Plaza,1,Jelebu Road,Restaurants,Eats
103.7785605,1.338656769,Subway - Bukit Timah Plaza,Bukit Timah Plaza,1,Jalan Anak Bukit,Restaurants,Eats
103.7856887,1.436007845,Subway - Causeway Point,Causeway Point,1,Woodlands Square,Restaurants,Eats
103.8432653,1.288148525,Subway - Central Square,Central Square Village Residences,20,Havelock Road,Restaurants,Eats
103.9623893,1.334325156,Subway - Changi City Point,Changi City Point,5,Changi Business Park Central 1,Restaurants,Eats
103.8464765,1.327084845,Subway - Changi General Hospital,Changi General Hospital,2,Simei St 2 Lobby B,Restaurants,Eats
103.7389318,1.378056142,Subway - Choa Chu Kang,,475,Choa Chu Kang Avenue 3,Restaurants,Eats
103.8446971,1.284998828,Subway - Chinatown Point,Chinatown Point,133,New Bridge Road,Restaurants,Eats
103.8564218,1.311305165,Subway - City Square Mall,City Square Mall,180,Kitchener Road,Restaurants,Eats
103.7642482,1.314853218,Subway - Clementi Mall,Clementi Mall,3155,Commonwealth Avenue West,Restaurants,Eats
103.89498,1.39209415,Subway - Compass One,Compass One,1,Sengkang Square,Restaurants,Eats
103.9338059,1.37362335,Subway - Courts Tampines,Courts (Tampines),50,Tampines North Drive 2,Restaurants,Eats
103.810959,1.292703393,Subway - Dawson Place,Dawson Place,57,Dawson Road,Restaurants,Eats
103.9554195,1.321447678,Subway - Eastwood Centre,Eastwood Centre,20,Eastwood Drive,Restaurants,Eats
103.8482272,1.283154302,Subway - Far East Square,Far East Square,"42,43",Pekin Street,Restaurants,Eats
103.6977321,1.348743572,Subway - Gek Poh Shopping Mall,Gek Poh Shopping Mall,762,Jurong West Street 75,Restaurants,Eats
103.8317579,1.293802346,Subway - Great World City,Great World City,1,Kim Seng Promenade,Restaurants,Eats
103.8186256,1.262063364,Subway - Harbourfront Centre,Harbourfront Centre,1,Maritime Square,Restaurants,Eats
103.8483261,1.332141119,Subway - HDB Hub Toa Payoh,HDB Hub Toa Payoh,480,Toa Payoh Lorong 6,Restaurants,Eats
103.9316206,1.326984988,Subway - Heartbeat @ Bedok,Heartbeat @ Bedok,11,Bedok North Street 1,Restaurants,Eats
103.8850799,1.359496643,Subway - Heartland Mall,Heartland Mall,205,Hougang Street 21,Restaurants,Eats
103.8936616,1.372311856,Subway - Hougang Mall,Hougang Mall,90,Hougang Avenue 10,Restaurants,Eats
103.8828942,1.375148978,Subway - Hougang Ave 9,,51,Hougane Avenue 9,Restaurants,Eats
103.7467345,1.334898437,Subway - IMM,IMM,2,Jurong East Street 21,Restaurants,Eats
103.856412,1.377892032,Subway - ITE Central,ITE College Central,2,Ang Mo Kio Drive,Restaurants,Eats
103.7401767,1.333268187,Subway - JCube,Jcube,2,Jurong East Central 1,Restaurants,Eats
103.7661705,1.385295565,Subway - Jelapang Road,,524A,Jelapang Road,Restaurants,Eats
103.8940672,1.318856103,Subway - Singapore Post,Singapore Post Centre,10,Eunos Road,Restaurants,Eats
103.7744213,1.425383072,Subway - Singapore American School,Singapore American School,40,Woodlands Street 41,Restaurants,Eats
103.9569686,1.332507651,Subway - Singapore Expo,Singapore Expo,1,Expo Drive,Restaurants,Eats
103.8624069,1.290346263,Subway - Singapore Flyer,The Singapore Flyer,30,Raffles Avenue,Restaurants,Eats
103.7744714,1.311239948,Subway - Singapore Polytechnic,Singapore Polytechnic,500,Dover Road,Restaurants,Eats
103.8495516,1.297377289,Subway - SMU,Singapore Management University (SMU),90,Stamford Road,Restaurants,Eats
103.7882145,1.306848818,Subway - The Star Vista,The Star Vista,1,Vista Exchange Green,Restaurants,Eats
103.9362721,1.379306517,Subway - Pasir Ris West Plaza,Pasir Ris West Plaza,735,Pasir Ris Street 72,Restaurants,Eats
103.8492464,1.300046856,Subway - POMO,Paradiz Centre Shopping Mall,1,Selegie Road,Restaurants,Eats
103.9129764,1.394184091,Subway - Punggol Plaza,Punggol Plaza,168,Punggol Field,Restaurants,Eats
103.8527683,1.293760279,Subway - Raffles City Shopping Centre,Raffles City Shopping Centre,252,North Bridge Road,Restaurants,Eats
103.7829712,1.446237734,Subway - Republic Polytechnic,Republic Polytechnic,9,Woodlands Ave 9,Restaurants,Eats
103.9044716,1.392197776,Subway - Rivervale Mall,Rivervale Mall,11,Rivervale Crescent,Restaurants,Eats
103.8169097,1.277696363,Subway - Safra Clubhouse @ Mount Faber,Safra Club (Mount Faber),3,Telok Blangah Way,Restaurants,Eats
103.7903699,1.287743584,Subway - Science Hub,Science Hub,87,Science Park Drive,Restaurants,Eats
103.8357008,1.300865434,Subway - Scape,Orchard Link,2,Orchard Link,Restaurants,Eats
103.8760677,1.391393058,Subway - The Seletar Mall,The Seletar Mall,33,Sengkang West Avenue,Restaurants,Eats
103.8244951,1.441767148,Subway - Sembawang Shopping Centre,Sembawang Shopping Centre,604,Sembwang Road,Restaurants,Eats
103.817701,1.254925432,Subway - Sentosa,Jewel Cable Car Station @ Sentosa,42,Imbiah Road,Restaurants,Eats
103.8650419,1.365160708,Subway - Serangoon Gardens,my Village @ Serangoon Gardens,1,Maju Avenue,Restaurants,Eats
103.8566974,1.296490718,Subway - Shaw Tower,Shaw Tower,"9,4,2020",Beach Road,Restaurants,Eats
103.9231681,1.31260565,Subway - Siglap Centre,Siglap Centre,55,Siglap Road,Restaurants,Eats
103.8528756,1.303022983,Subway - Sim Lim Square,Sim Lim Square,1,Rochor Canal Road,Restaurants,Eats
103.7757011,1.329191998,Subway - SIM,SIM Block B,461,Clementi Road,Restaurants,Eats
103.8854697,1.339639267,Pizza Hut - Upper Paya Lebar (DEL),,165,Upper Paya Lebar Road,Fastfood,Eats
103.9019882,1.406536107,Pizza Hut - Waterway Point (opening 18 Jan 16),Waterway point,83,Punggol Central,Restaurants,Eats
103.7588644,1.311278735,Pizza Hut - West Coast (DEL),,501,West Coast Drive,Restaurants,Eats
103.749022,1.35018916,Pizza Hut - West Mall,Westmall,1,Bukit Batok Central Link,Restaurants,Eats
103.742586,1.334025287,Pizza Hut - Westgate,,3,Gateway Drive Westgate,Restaurants,Eats
103.7746366,1.429929912,Pizza Hut - Woodlands 2 (DEL),,306,Woodlands Street 31,Restaurants,Eats
103.7951367,1.437679197,Pizza Hut - Woodlands 888 (DEL),,888,Woodlands Drive 50,Restaurants,Eats
103.8003565,1.306995331,Rice Garden - 31 Commonwealth,,31,Commonwealth Crescent,Restaurants,Eats
103.8867735,1.320781075,Rice Garden - Aljunied,,117,Aljunied Avenue 2,Restaurants,Eats
103.8864267,1.389558478,Rice Garden - Anchorvale Sengkang,Anchorvale Sengkang,308,Anchorvale Road Stall No.8,Restaurants,Eats
103.8545878,1.36209053,Rice Garden - Ang Mo Kio,,408,Ang Mo Kio Avenue 10,Restaurants,Eats
103.9253073,1.331313862,Rice Garden - Bedok North,,539,Bedok North Street 3 Stall 7,Restaurants,Eats
103.8630209,1.319216671,Rice Garden - Bendeemer,,29,Bendeemer Road,Restaurants,Eats
103.7724897,1.37760059,Rice Garden - Bukit Panjang Hawker Centre,Bukit Panjang Hawker Centre,2,Bukit Panjang Ring Road,Restaurants,Eats
103.7506946,1.359259405,Rice Garden - Bukit Batok,,371,Bukit Batok Street 31,Restaurants,Eats
103.7461704,1.347003762,Rice Garden - Bukit Batok West,,109,Bukit Batok West Avenue 6,Restaurants,Eats
103.7479612,1.400915329,Rice Garden - Choa Chu Kang,,673B,Choa Chu Kang Crescent Stall 6,Restaurants,Eats
103.7668174,1.315096678,Rice Garden - Clementi,,325,Clementi Avenue 5,Restaurants,Eats
103.9042565,1.320331258,Rice Garden - Eunos,,4A,Eunos Crescent,Restaurants,Eats
103.7882303,1.310996628,Rice Garden - Ghim Moh,,20,Ghim Moh Road,Restaurants,Eats
103.7935003,1.3071759,Rice Garden - Holland Drive,,40,Holland Drive,Restaurants,Eats
103.88834,1.359520863,Rice Garden - Hougang,,212,Hougang Street 21,Restaurants,Eats
103.9036238,1.377915051,Rice Garden - Hougang Capeview,Hougang Capeview,476D,Upper Serangoon View,Restaurants,Eats
103.8260133,1.280004819,Rice Garden - Jalan Bukit Merah,,112,Jalan Bukit Merah,Restaurants,Eats
103.7356222,1.344856104,Rice Garden - Jurong East,,303,Jurong East Street 32 Stall 8,Restaurants,Eats
103.7060894,1.344594671,Rice Garden - Jurong West Central,Jurong West Central,679,Jurong West Central,Restaurants,Eats
103.8856201,1.332283325,Rice Garden - Macpherson Lane,,82,Macpherson Lane,Restaurants,Eats
103.9479702,1.369373292,Rice Garden - Pasir Ris,,527C,Pasir Ris Street 51,Restaurants,Eats
103.8672429,1.331800776,Rice Garden - Potong Pasir,,146,Potong Pasir Avenue 1,Restaurants,Eats
103.8541158,1.301102013,Rice Garden - Queen Street,,270,Queen Street,Restaurants,Eats
103.8677055,1.353626091,Rice Garden - Serangoon Avenue 2,,304,Serangoon Avenue 2,Restaurants,Eats
103.8726629,1.3684795,Rice Garden - Serangoon North,,147,Serangoon North Avenue 1,Restaurants,Eats
103.8076181,1.273355969,Rice Garden - Telok Blangah,Food Centre,79,Telok Blangah Drive,Restaurants,Eats
103.7515675,1.337069095,Rice Garden - Toh Guan,Alpha Industrial Building,7,Toh Guan East Stall 2,Restaurants,Eats
103.9021731,1.329279748,Rice Garden - Ubi,,350,Ubi Avenue 1 Stall 9,Restaurants,Eats
103.8716203,1.315028055,Rice Garden - Upper Boon Keng,,17,Upper Boon Keng Road,Restaurants,Eats
103.8383151,1.279331459,Savory Inn - Health Promotion Board,Health Promotion Board,3,Second Hospital Ave,Restaurants,Eats
103.8394192,1.333665263,Savory Inn - Ministry of Social and Family Development,Ministry of Social and Family Development,512,Thomson Road,Restaurants,Eats
103.7856887,1.436007845,Soup Restaurant - Causeway Point,Causeway Point,1,Woodlands Square,Restaurants,Eats
103.9437277,1.352278032,Soup Restaurant - Century Square,Century Square,2,Tampines Central 5,Restaurants,Eats
103.988751,1.35519094,Soup Restaurant - Changi Airport,Changi Airport Terminal 2,,"Airport Boulevard, Changi Airport Terminal 2",Restaurants,Eats
103.7642482,1.314853218,Soup Restaurant - Clementi Mall,Clementi Mall,3155,Commonwealth Avenue West,Restaurants,Eats
103.89498,1.39209415,Soup Restaurant - Compass Point,Compass One,1,Sengkang Square,Restaurants,Eats
103.8936616,1.372311856,Soup Restaurant - Hougang Mall,Hougang Mall,90,Hougang Avenue 10,Restaurants,Eats
103.7467345,1.334898437,Soup Restaurant - IMM,IMM,2,Jurong East Street 21,Restaurants,Eats
103.7064609,1.339830153,Soup Restaurant - Jurong Point,Jurong Point,1,Jurong West Central 2,Restaurants,Eats
103.7064609,1.339830153,Swensens - Jurong Point,Jurong Point,63,Jurong West Central 2,Restaurants,Eats
103.8717045,1.350438172,Swensens - NEX,NEX,23,Serangoon Central,Restaurants,Eats
103.8357765,1.42969848,Swensens - North Point,North Point Shopping Centre,930,Yishun Ave 2,Restaurants,Eats
103.9051136,1.301191307,Swensens - Parkway Parade,Parkway Parade,80,Marine Parade Road,Restaurants,Eats
103.8450476,1.300747543,Swensens - Plaza Singapura,Plaza Singapura,68,Orchard Road,Restaurants,Eats
103.8194621,1.448226532,Swensens - Sun Plaza,Sun Plaza,30,Sembawang Drive,Restaurants,Eats
103.944388,1.352672316,Swensens - Tampines Mall,Tampines Mall,4,Tampines Central 5,Restaurants,Eats
103.8760677,1.391393058,Swensens - The Seletar Mall,The Seletar Mall,33,Sengkang West Avenue,Restaurants,Eats
103.8309198,1.354669019,Swensens - Thomson Plaza,Thomson Plaza,301,Upper Thomson Road,Restaurants,Eats
103.8279204,1.429955015,Pizza Hut - Yishun Delco (DEL),,701A,Yishun Avenue 5 Yishun Delco,Restaurants,Eats
103.8360921,1.428035845,Pizza Hut - NorthPoint City,NorthPoint City,1,Northpoint Drive,Restaurants,Eats
103.8313951,1.30403577,Pu Tien - ION Orchard,ION Orchard,2,Orchard Turn,Restaurants,Eats
103.7064609,1.339830153,Pu Tien - Jurong Point,JP1,1,Jurong West Central 2,Restaurants,Eats
103.85732,1.309537216,Pu Tien - Kitchener Road,,127,Kitchener Road,Restaurants,Eats
103.8570073,1.291455259,Pu Tien - Marina Square,,6,Raffles Boulevard,Restaurants,Eats
103.8717045,1.350438172,Pu Tien - NEX,,23,Serangoon Central,Restaurants,Eats
103.9051136,1.301191307,Pu Tien - Parkway Parade,,80,Marine Parade Road,Restaurants,Eats
103.8527683,1.293760279,Pu Tien - Raffles City,,252,North Bridge Road,Restaurants,Eats
103.819459,1.256573486,Pu Tien - Resorts World Sentosa,The Forum,26,Sentosa Gateway,Restaurants,Eats
103.944388,1.352672316,Pu Tien - Tampines Mall,,4,Tampines Central 5,Restaurants,Eats
103.8215893,1.263895802,Pu Tien - Vivo City,,1,Harbour Front Walk,Restaurants,Eats
103.801127,1.273676578,QQ Rice - Alexandra Retail Centre,Alexandra Retail Centre,460,Alexandra Road,Restaurants,Eats
103.8483992,1.369248913,QQ Rice - AMK Hub,AMK Hub,53,Ang Mo Kio Ave 3,Restaurants,Eats
103.7627412,1.378349713,QQ Rice - Hillion Mall,Hillion Mall,17,Petir Road,Restaurants,Eats
103.7064609,1.339830153,QQ Rice - Jurong Point,Jurong Point,1,Jurong West Central 2,Restaurants,Eats
103.8717045,1.350438172,QQ Rice - NEX,NEX,23,Serangoon Central,Restaurants,Eats
103.784084,1.292774313,QQ Rice - NUH,NUH Medical Centre,1,Lower Kent Ridge Road,Restaurants,Eats
103.8509824,1.284339935,QQ Rice - One Raffles,One Raffles Place,1,One Raffles Place,Restaurants,Eats
103.9396836,1.353496155,QQ Rice - Our Tampines Hub,Our Tampines Hub,51,Tampines Avenue 4,Restaurants,Eats
103.8438921,1.320429661,QQ Rice - Square 2,Square 2,10,Sinaran Drive,Restaurants,Eats
103.9448383,1.353646577,QQ Rice - Tampines MRT,Tampines MRT Station,20,Tampines Central 1,Restaurants,Eats
103.8528448,1.277372343,QQ Rice - Marina One,Marina One,5,Straits View,Restaurants,Eats
103.8483261,1.332141119,QQ Rice - Toa Payoh,HDB Hub Toa Payoh,490,Toa Payoh Lorong 6,Restaurants,Eats
103.7860668,1.436819624,QQ Rice - Woodlands MRT,Woodlands MRT Station,30,Woodlands Ave 2,Restaurants,Eats
103.8576755,1.294879041,Subway - Suntec City Mall,"Suntec City, Tower 1",,Temasek Boulevard,Restaurants,Eats
103.7244833,1.325925995,Subway - Superbowl Jurong,SuperBowl Jurong,1,Yuan Ching Road,Restaurants,Eats
103.9551111,1.359013178,Subway - Tampines 462,,462,Tampines Street  44,Restaurants,Eats
103.9600422,1.354364934,Subway - Tampines Mart,,5,Tampines West Street 32,Restaurants,Eats
103.9450195,1.35431556,Subway - Tampines One,Tampines One,10,Tampines Central 1,Restaurants,Eats
103.944388,1.352672316,Subway - Tampines Telepark,Tampines Telepark,5,Tampines Central,Restaurants,Eats
103.9356334,1.348750764,Subway - Tampines West Community Club,Tampines West Community Club,5,Tampines Avenue 3,Restaurants,Eats
103.92884,1.347939478,Subway - Temasek Polytechnic,Temasek Polytechnic,21,Tampines Avenue 1,Restaurants,Eats
103.846556,1.288862917,Subway - The Central,The Central,6,Eu Tong Sen Street,Restaurants,Eats
103.7676538,1.359170554,Subway - The Rail Mall,The Rail Mall,430,Upper Bukit Timah Road,Restaurants,Eats
103.8309198,1.354669019,Subway - Thomsom Plaza,Thomson Plaza,301,Thomson Road,Restaurants,Eats
103.8269351,1.286463453,Subway - Tiong Bahru Plaza,Tiong Bahru Plaza,302,Tiong Bahru Road,Restaurants,Eats
103.9009954,1.330025867,Subway - Ubi,,302,Ubi Avenue 1,Restaurants,Eats
103.8434632,1.31733463,Subway - United Square,United Square,101,Thomson Road,Restaurants,Eats
103.7734922,1.303995508,Subway - University Town,,1,Create Way University Town,Restaurants,Eats
103.8427,1.299107892,Subway - Visioncrest Commercial,VisionCrest Commercial,103,Penang Road,Restaurants,Eats
103.8215893,1.263895802,Subway - Vivo City,Vivo City,1,Harbourfront Walk,Restaurants,Eats
103.8477757,1.371785516,Subway - Jubilee @ AMK,Jubilee Square,61,Ang Mo Kio Avenue 8,Restaurants,Eats
103.8484776,1.350239427,Subway - Junction 8,Junction 8,9,Bishan Place,Restaurants,Eats
103.7064609,1.339830153,Subway - Jurong Point,Jurong Point,1,Jurong West Central 2,Restaurants,Eats
103.7200224,1.350675726,Subway - Jurong West,,456,Jurong West Street 41,Restaurants,Eats
103.8761527,1.302221771,Subway - Kallang Leisure Park,Kallang Leisure Park,5,Stadium Walk,Restaurants,Eats
103.8620059,1.308326996,Subway - Kitchener,Kitchener Complex,809,French Road,Restaurants,Eats
103.8378537,1.423877598,Subway - KTPH,Khoo Teck Puat Hospital (KTPH),90,Yishun Central,Restaurants,Eats
103.8446689,1.291490197,Subway - Liang Court,Liang Court,,River Valley Road,Restaurants,Eats
103.7449504,1.385068357,Subway - Lot One,Lot One,21,Choa Chu Kang Avenue 4,Restaurants,Eats
103.9646178,1.367000538,Subway - Loyang Point,Loyang Point,258,Pasir Ris Street 21,Restaurants,Eats
103.7990648,1.274827483,Subway - Mapletree Business City,Mapletree Business City,20,Pasir Panjang Road,Restaurants,Eats
103.8570073,1.291455259,Subway - Marina Square,Marina Square,6,Raffles Boulevard,Restaurants,Eats
103.8533493,1.280227673,Subway - Marina Bay Link,Marina Bay Link Mall,8A,Marina Boulevard,Restaurants,Eats
103.8454218,1.276516012,Subway - Maxwell Road,,120,Maxwell Road,Restaurants,Eats
103.7946168,1.292414485,Subway - Mediapolis,Mediapolis,21,Media Circle,Restaurants,Eats
103.859344,1.29296504,Subway - Millenia Walk,Millenia Walk,9,Raffles Boulevard,Restaurants,Eats
103.8375243,1.341809693,Subway - Mount Alvernia Hosptital,Mount Alvernia Hospital,820,Thomson Road,Restaurants,Eats
103.6923202,1.342364028,Subway - Nanyang Community Club,Nanyang Community Club,60,Jurong West Street 91,Restaurants,Eats
103.8717045,1.350438172,Subway - NEX,NEX,23,Serangoon Central,Restaurants,Eats
103.7438655,1.335533819,Subway - Ng Teng Fong Hospital,Ng Teng Fong General Hospital Tower A,1,Jurong East Street 21,Restaurants,Eats
103.7715625,1.332762597,Subway - Ngee Ann Poly,"Ngee Ann Polytechnic, The Makan Place",51,535 Clementi Road,Restaurants,Eats
103.8357765,1.42969848,Subway - North Point,North Point Shopping Centre,930,Yishun Ave 2,Restaurants,Eats
103.8436568,1.320211,Subway - Novena Square,Novena Square,238,Thomson Road,Restaurants,Eats
103.6800338,1.347130438,Subway - NTU,"Nanyang Technological University (NTU), Blk N2.1",76,Nanyang Drive,Restaurants,Eats
103.7827095,1.293953054,Subway - NUH,NUH,1,Lower Kent Ridge Road,Restaurants,Eats
103.7747032,1.298463251,Subway - NUS,NUS Yusof Ishak House,31,Lower Kent Ridge Road,Restaurants,Eats
